iata_code,name,latitude_deg,longitude_deg,home_link
WKK,Aleknagik / New Airport,59.2826004028,-158.617996216,
HIR,Honiara International Airport,-9.4280004501343,160.05499267578,
MUA,Munda Airport,-8.32796955108643,157.263000488281,
PPE,Mar de Cortés International Airport,31.351621,-113.305864,
INU,Nauru International Airport,-0.547458,166.919006,
AXF,Alxa Left Banner Bayanhot Airport,38.74831,105.58858,
BUA,Buka Airport,-5.4223198890686,154.673004150391,
CMU,Chimbu Airport,-6.02429008483887,144.970993041992,
DAU,Daru Airport,-9.08675956726,143.207992554,
GKA,Goroka Airport,-6.08168983459,145.391998291,
GUR,Gurney Airport,-10.3114995956,150.333999634,
PNP,Girua Airport,-8.80453968048,148.309005737,
HKN,Kimbe Airport,-5.46217012405396,150.404998779297,
KMA,Kerema Airport,-7.96361017227,145.770996094,
KVG,Kavieng Airport,-2.57940006256,150.807998657,
MAG,Madang Airport,-5.20707988739,145.789001465,
HGU,Mount Hagen Kagamuga Airport,-5.82678985595703,144.296005249023,
MDU,Mendi Airport,-6.14774,143.656998,
MAS,Momote Airport,-2.06189,147.423996,
LAE,Nadzab Airport,-6.569803,146.725977,
POM,Port Moresby Jacksons International Airport,-9.44338035583496,147.220001220703,
RAB,Tokua Airport,-4.34045982361,152.380004883,
VAI,Vanimo Airport,-2.6926,141.3028,
WBM,Wapenamanda Airport,-5.64330005645752,143.895004272461,
WWK,Wewak International Airport,-3.58383011818,143.669006348,
BCW,Benguera Island Airport,-21.8533000946045,35.4383010864258,
JEG,Aasiaat Airport,68.7218017578,-52.7846984863,http://airgreenland.com/om_rejsen/efter_rejsen/din_destination_/aasiaat/
UAK,Narsarsuaq Airport,61.1604995728,-45.4259986877,
GOH,Godthaab / Nuuk Airport,64.19090271,-51.6781005859,
SFJ,Kangerlussuaq Airport,67.0122218992,-50.7116031647,
THU,Thule Air Base,76.5311965942,-68.7032012939,
AEY,Akureyri Airport,65.6600036621094,-18.0727005004883,
EGS,Egilsstaðir Airport,65.2833023071289,-14.4013996124268,
HFN,Hornafjörður Airport,64.295601,-15.2272,
HZK,Húsavík Airport,65.952301,-17.426001,
IFJ,Ísafjörður Airport,66.0580978393555,-23.1352996826172,
KEF,Keflavik International Airport,63.985000610352,-22.605600357056,
RKV,Reykjavik Airport,64.1299972534,-21.9405994415,
PRN,Priština International Airport,42.5728,21.035801,http://www.airportpristina.com/
BGK,Big Creek Airport,16.5193691253662,-88.4079132080078,
CUK,Caye Caulker Airport,17.7346992492676,-88.0325012207031,
CYC,Caye Chapel Airport,17.7007999420166,-88.0410995483399,
CZH,Corozal Municipal Airport,18.3822002410889,-88.4119033813477,
DGA,Dangriga Airport,16.9825096130371,-88.2309875488281,
PLJ,Placencia Airport,16.5369567871094,-88.3615112304688,
PND,Punta Gorda Airport,16.102399826,-88.8082962036,
SJX,Sartaneja Airport,18.3561000823975,-88.1307983398438,
SPR,San Pedro Airport,17.9139003753662,-87.9710998535156,
TZA,Belize City Municipal Airport,17.5163898468018,-88.1944427490234,
CMN,CMN,0,0,
ZQZ,Zhangjiakou Ningyuan Airport,40.7386016846,114.930000305,
BSD,Baoshan Yunduan Airport,25.053301,99.168297,
LNJ,Lintsang Airfield,23.7381000519,100.025001526,
RKZ,Shigatse Air Base,29.3519,89.311401,
PZI,Bao'anying Airport,26.54,101.79852,
FUO,Foshan Shadi Airport,23.0832996368,113.069999695,
HUZ,Huizhou Airport,23.0499992371,114.599998474,
JGS,Jinggangshan Airport,26.8568992615,114.736999512,
AEB,Baise Youjiang Airport,23.7206001282,106.959999084,
AAT,Altay Air Base,47.7498855591,88.0858078003,
THQ,Tianshui Maijishan Airport,34.5593986511,105.86000061,
YZY,Zhangye Ganzhou Airport,38.8018989563,100.675003052,
DDG,Dandong Airport,40.0247,124.286003,http://www.ddcei.gov.cn/english/index.html
GEC,Geçitkale Air Base,35.235947,33.724358,
YAC,Cat Lake Airport,51.7271995544434,-91.8244018554688,
YAG,Fort Frances Municipal Airport,48.6542015075684,-93.439697265625,
YAM,Sault Ste Marie Airport,46.4850006103516,-84.5093994140625,http://www.saultairport.com/
XKS,Kasabonika Airport,53.5247001647949,-88.6427993774414,
YKG,Kangirsuk Airport,60.0271987915039,-69.9991989135742,
YAT,Attawapiskat Airport,52.9275016784668,-82.4319000244141,
YAY,St. Anthony Airport,51.3918991089,-56.0830993652,
YAZ,Tofino / Long Beach Airport,49.079833,-125.775583,http://www.acrd.bc.ca/long-beach-airport
YBB,Kugaaruk Airport,68.534401,-89.808098,
YBC,Baie Comeau Airport,49.1324996948242,-68.2043991088867,
QBC,Bella Coola Airport,52.387501,-126.596001,
YBE,Uranium City Airport,59.5614013671875,-108.481002807617,
YBY,Bonnyville Airport,54.304199,-110.744003,http://town.bonnyville.ab.ca/livingin/airport/index.html
YBG,CFB Bagotville,48.3306007385254,-70.9963989257813,
YBK,Baker Lake Airport,64.2988967896,-96.077796936,
YBL,Campbell River Airport,49.9508018493652,-125.271003723145,
XTL,Tadoule Lake Airport,58.7061,-98.512199,
YBR,Brandon Municipal Airport,49.91,-99.951897,
YBT,Brochet Airport,57.8894,-101.679001,
YBV,Berens River Airport,52.358898,-97.018303,
YBX,Lourdes de Blanc Sablon Airport,51.4435997009,-57.1852989197,
YRF,Cartwright Airport,53.6828002929687,-57.0419006347656,
YCB,Cambridge Bay Airport,69.1081008911,-105.138000488,
YCD,Nanaimo Airport,49.0549702249,-123.869862556,
YCG,Castlegar/West Kootenay Regional Airport,49.2963981628,-117.632003784,
YCH,Miramichi Airport,47.007801,-65.449203,
YCL,Charlo Airport,47.990799,-66.330299,
YCO,Kugluktuk Airport,67.816704,-115.143997,
YCS,Chesterfield Inlet Airport,63.3469009399,-90.7311019897,
YCY,Clyde River Airport,70.4860992432,-68.5167007446,
YDA,Dawson City Airport,64.043098449707,-139.128005981445,
YDF,Deer Lake Airport,49.2108001708984,-57.3913993835449,
YDN,Dauphin Barker Airport,51.1007995605469,-100.052001953125,
YDP,Nain Airport,56.5491981506348,-61.6803016662598,
YDQ,Dawson Creek Airport,55.7422981262207,-120.182998657227,
YEG,Edmonton International Airport,53.3097000122,-113.580001831,http://www.edmontonairports.com/
YEK,Arviat Airport,61.0942001343,-94.0708007812,
YER,Fort Severn Airport,56.0189018249512,-87.6761016845703,
YEV,Inuvik Mike Zubko Airport,68.3041992188,-133.483001709,
YFA,Fort Albany Airport,52.2014007568359,-81.6968994140625,
YFB,Iqaluit Airport,63.756402,-68.555801,
YFC,Fredericton Airport,45.8689002990723,-66.5372009277344,
YFH,Fort Hope Airport,51.5619010925293,-87.9077987670899,
YFO,Flin Flon Airport,54.6781005859375,-101.681999206543,
YFS,Fort Simpson Airport,61.7602005004883,-121.236999511719,
YMN,Makkovik Airport,55.0769004821777,-59.1864013671875,
YGB,Texada Gillies Bay Airport,49.6941986083984,-124.517997741699,
YGH,Fort Good Hope Airport,66.2407989501953,-128.651000976563,
YGK,Kingston Norman Rogers Airport,44.2252998352051,-76.5969009399414,http://www.cityofkingston.ca/residents/transportation/airport/index.asp
YGL,La Grande Rivière Airport,53.625301361084,-77.7042007446289,
YGO,Gods Lake Narrows Airport,54.5588989257813,-94.4914016723633,
YGP,Gaspé (Michel-Pouliot) Airport,48.7752990723,-64.4785995483,
YGR,Îles-de-la-Madeleine Airport,47.4247016906738,-61.7780990600586,
YGT,Igloolik Airport,69.3647003174,-81.8161010742,
YGW,Kuujjuarapik Airport,55.2818984985352,-77.7652969360352,
YGX,Gillam Airport,56.3574981689453,-94.7106018066406,
YGZ,Grise Fiord Airport,76.4261016846,-82.9092025757,
YQC,Quaqtaq Airport,61.0463981628418,-69.6177978515625,
YHD,Dryden Regional Airport,49.8316993713379,-92.7442016601563,
YNS,Nemiscau Airport,51.6911010742188,-76.1355972290039,
YHI,Ulukhaktok Holman Airport,70.7628021240234,-117.805999755859,
YHK,Gjoa Haven Airport,68.635597229,-95.8497009277,
YHM,John C. Munro Hamilton International Airport,43.1735992432,-79.9349975586,http://www.flyhi.ca/
YHO,Hopedale Airport,55.448299407959,-60.2285995483399,
YHR,Chevery Airport,50.4688987731934,-59.6366996765137,
YHU,Montréal / Saint-Hubert Airport,45.5175018311,-73.4169006348,http://www.dashl.ca/
YHY,Hay River / Merlyn Carter Airport,60.8396987915,-115.782997131,
YHZ,Halifax / Stanfield International Airport,44.8807983398,-63.5085983276,http://www.hiaa.ca/
YIK,Ivujivik Airport,62.4173011779785,-77.9253005981445,
YIO,Pond Inlet Airport,72.6832962036,-77.9666976929,
YIV,Island Lake Airport,53.8572006225586,-94.6536026000977,
YJT,Stephenville Airport,48.5442008972168,-58.5499992370606,
YKA,Kamloops Airport,50.7022018433,-120.444000244,
LAK,Aklavik/Freddie Carmichael Airport,68.223297,-135.00599,
YKF,Waterloo Airport,43.4608001709,-80.3786010742,http://www.waterlooairport.ca/
YWB,Kangiqsujuaq (Wakeham Bay) Airport,61.5886001587,-71.929397583,
YKL,Schefferville Airport,54.8053016662598,-66.8052978515625,
AKV,Akulivik Airport,60.8185997009277,-78.1485977172852,
YKQ,Waskaganish Airport,51.4733009338379,-78.75830078125,
YPJ,Aupaluk Airport,59.2966995239258,-69.5997009277344,
YLC,Kimmirut Airport,62.8499984741,-69.8833007812,
YLH,Lansdowne House Airport,52.1955986022949,-87.934196472168,
YSG,Lutselk'e Airport,62.418303,-110.681998,
YLL,Lloydminster Airport,53.3092002868652,-110.072998046875,
XGR,Kangiqsualujjuaq (Georges River) Airport,58.7113990783691,-65.9927978515625,
YLW,Kelowna International Airport,49.9561004639,-119.377998352,http://www.kelowna.ca/CM/Page68.aspx
YMH,Mary's Harbour Airport,52.3027992248535,-55.8471984863281,
YMM,Fort McMurray Airport,56.653301239,-111.222000122,
YMO,Moosonee Airport,51.2910995483398,-80.6078033447266,
YMT,Chapais Airport,49.771900177002,-74.5280990600586,
YUD,Umiujaq Airport,56.5360984802246,-76.5183029174805,
YNA,Natashquan Airport,50.189998626709,-61.7891998291016,
YNC,Wemindji Airport,53.0106010437012,-78.8311004638672,
YNE,Norway House Airport,53.9583015441895,-97.8442001342773,
YNL,Points North Landing Airport,58.2766990661621,-104.082000732422,
YOC,Old Crow Airport,67.5706024169922,-139.839004516602,
YOH,Oxford House Airport,54.9333000183106,-95.2789001464844,
YOJ,High Level Airport,58.6213989257813,-117.165000915527,
YOP,Rainbow Lake Airport,58.4914016723633,-119.407997131348,
YOW,Ottawa Macdonald-Cartier International Airport,45.3224983215332,-75.6691970825195,http://www.ottawa-airport.ca/
YPA,Prince Albert Glass Field,53.2141990662,-105.672996521,
YPC,Paulatuk (Nora Aliqatchialuk Ruben) Airport,69.3608381154,-124.075469971,
YPE,Peace River Airport,56.2268981933594,-117.446998596191,
YPH,Inukjuak Airport,58.4719009399414,-78.0768966674805,
YPL,Pickle Lake Airport,51.4463996887207,-90.2142028808594,
YPM,Pikangikum Airport,51.8196983337402,-93.9732971191406,
YPO,Peawanuck Airport,54.9880981445313,-85.4432983398437,
YPR,Prince Rupert Airport,54.2860984802,-130.445007324,http://www.ypr.ca/
YPW,Powell River Airport,49.8342018127441,-124.5,
YPY,Fort Chipewyan Airport,58.7672004699707,-111.116996765137,
YQB,Quebec Jean Lesage International Airport,46.7911,-71.393303,http://www.aeroportdequebec.com/
YQD,The Pas Airport,53.9714012145996,-101.091003417969,
YQG,Windsor Airport,42.2756004333496,-82.9555969238281,
YQK,Kenora Airport,49.7882995605469,-94.3630981445313,
YQL,Lethbridge County Airport,49.6302986145,-112.800003052,
YQM,Greater Moncton International Airport,46.1122016906738,-64.678596496582,
YQN,Nakina Airport,50.1828002929688,-86.696403503418,
YQQ,Comox Airport,49.7108001708984,-124.887001037598,
YQR,Regina International Airport,50.4319000244141,-104.666000366211,
YQT,Thunder Bay Airport,48.3718986511231,-89.3238983154297,
YQU,Grande Prairie Airport,55.1796989441,-118.885002136,http://www.grandeprairieairport.com/
YQX,Gander International Airport,48.9369010925293,-54.5680999755859,
YQY,Sydney / J.A. Douglas McCurdy Airport,46.1613998413,-60.0477981567,
YQZ,Quesnel Airport,53.0261001586914,-122.51000213623,
YRA,Rae Lakes Airport,64.116096496582,-117.309997558594,
YRB,Resolute Bay Airport,74.7169036865,-94.9693984985,
YRJ,Roberval Airport,48.5200004577637,-72.2656021118164,
YRL,Red Lake Airport,51.0668983459473,-93.793098449707,
YRT,Rankin Inlet Airport,62.8114013672,-92.1157989502,
YSB,Sudbury Airport,46.625,-80.7988967895508,
YSF,Stony Rapids Airport,59.250301361084,-105.841003417969,
YSJ,Saint John Airport,45.3161010742187,-65.8902969360352,
YSK,Sanikiluaq Airport,56.5377998352,-79.2466964722,
YSM,Fort Smith Airport,60.0203018188477,-111.96199798584,
YST,St. Theresa Point Airport,53.8456001281738,-94.8518981933594,
YSY,Sachs Harbour (David Nasogaluak Jr. Saaryuaq) Airport,71.9938964844,-125.242996216,
YTE,Cape Dorset Airport,64.2300033569,-76.5267028809,
YTF,Alma Airport,48.5088996887,-71.6418991089,
YTH,Thompson Airport,55.8011016845703,-97.8641967773438,
YTL,Big Trout Lake Airport,53.817798614502,-89.8968963623047,
YTS,Timmins/Victor M. Power,48.5696983337,-81.376701355,http://portal.timmins.ca/portal/en/timmins/residents/airport
YTZ,Billy Bishop Toronto City Centre Airport,43.627499,-79.396202,http://www.torontoport.com/airport.aspx
YUB,Tuktoyaktuk Airport,69.4332962036133,-133.026000976563,
YUL,Montreal / Pierre Elliott Trudeau International Airport,45.4706001282,-73.7407989502,http://www.admtl.com/passager/Home.aspx
YUT,Repulse Bay Airport,66.5214004517,-86.2247009277,
YUX,Hall Beach Airport,68.7761001587,-81.2425,
YUY,Rouyn Noranda Airport,48.2061004638672,-78.8356018066406,
YVC,La Ronge Airport,55.1514015198,-105.262001038,
YVM,Qikiqtarjuaq Airport,67.5457992554,-64.0314025879,
YVO,Val-d'Or Airport,48.0532989502,-77.7827987671,http://www.arvo.qc.ca/
YVP,Kuujjuaq Airport,58.0960998535156,-68.4269027709961,
YVQ,Norman Wells Airport,65.2816009521484,-126.797996520996,
YVR,Vancouver International Airport,49.193901062,-123.183998108,http://www.yvr.ca/
YVZ,Deer Lake Airport,52.6557998657227,-94.0614013671875,
YWG,Winnipeg / James Armstrong Richardson International Airport,49.9099998474,-97.2398986816,http://www.waa.ca/
YWJ,Déline Airport,65.2110977172852,-123.435997009277,
YWK,Wabush Airport,52.9219017028809,-66.8644027709961,
YWL,Williams Lake Airport,52.1831016541,-122.054000854,
YWP,Webequie Airport,52.9593933975,-87.3748683929,
YXC,Cranbrook/Canadian Rockies International Airport,49.610801696777,-115.78199768066,
YXE,Saskatoon John G. Diefenbaker International Airport,52.1707992553711,-106.699996948242,
YXH,Medicine Hat Airport,50.0189018249512,-110.721000671387,
YXJ,Fort St John Airport,56.2380981445313,-120.73999786377,
YXL,Sioux Lookout Airport,50.113899230957,-91.9052963256836,
YXN,Whale Cove Airport,62.2400016785,-92.5980987549,
YXP,Pangnirtung Airport,66.1449966431,-65.7136001587,
YXS,Prince George Airport,53.8894004822,-122.679000854,
YXT,Northwest Regional Airport Terrace-Kitimat,54.468498,-128.576009,
YXU,London Airport,43.035599,-81.1539,http://www.londonairport.on.ca/
YXX,Abbotsford Airport,49.0252990722656,-122.361000061035,http://www.abbotsfordairport.ca/
YXY,Whitehorse / Erik Nielsen International Airport,60.7095985413,-135.067001343,
YYB,North Bay Airport,46.3636016845703,-79.4227981567383,http://www.northbayairport.com/jackgarland.asp
YYC,Calgary International Airport,51.113899231,-114.019996643,http://www.calgaryairport.com/
YYD,Smithers Airport,54.8246994018555,-127.182998657227,
YYE,Fort Nelson Airport,58.8363990784,-122.597000122,
YYF,Penticton Airport,49.4631004333496,-119.601997375488,
YYG,Charlottetown Airport,46.2900009155274,-63.1211013793945,
YYH,Taloyoak Airport,69.5466995239,-93.5766983032,
YYJ,Victoria International Airport,48.646900177,-123.426002502,http://www.victoriaairport.com/
YYL,Lynn Lake Airport,56.863899230957,-101.075996398926,
YYQ,Churchill Airport,58.739200592041,-94.0650024414063,
YYR,Goose Bay Airport,53.3191986084,-60.4258003235,
YYT,St. John's International Airport,47.618598938,-52.7518997192,http://www.stjohnsairport.com/
YYU,Kapuskasing Airport,49.4138984680176,-82.4674987792969,
YYY,Mont Joli Airport,48.6086006164551,-68.2080993652344,
YYZ,Lester B. Pearson International Airport,43.6772003174,-79.6305999756,http://www.gtaa.com/
YZF,Yellowknife Airport,62.4627990722656,-114.440002441406,
YZG,Salluit Airport,62.1794013977051,-75.6671981811523,
YZP,Sandspit Airport,53.2542991638,-131.813995361,
YZR,Chris Hadfield Airport,42.9994010925293,-82.3088989257812,
YZS,Coral Harbour Airport,64.1932983398,-83.3593978882,
YZT,Port Hardy Airport,50.6805992126465,-127.366996765137,
YZV,Sept-Îles Airport,50.2233009338379,-66.2656021118164,
ZAC,York Landing Airport,56.0894012451172,-96.0892028808594,
ILF,Ilford Airport,56.0614013672,-95.613899231,
ZBF,Bathurst Airport,47.629699707,-65.738899231,
ZEM,Eastmain River Airport,52.2263984680176,-78.5224990844727,
ZFD,Fond-Du-Lac Airport,59.334400177002,-107.181999206543,
ZFM,Fort Mcpherson Airport,67.4075012207031,-134.860992431641,
ZFN,Tulita Airport,64.909697,-125.572998,
ZGI,Gods River Airport,54.8396987915039,-94.0785980224609,
ZJN,Swan River Airport,52.1206016540527,-101.236000061035,
ZKE,Kashechewan Airport,52.2825012207031,-81.6778030395508,
MSA,Muskrat Dam Airport,53.4413986206055,-91.7628021240234,
ZMT,Masset Airport,54.0275001525879,-132.125,
ZPB,Sachigo Lake Airport,53.8911018371582,-92.196403503418,
ZRJ,Round Lake (Weagamow Lake) Airport,52.9435997009277,-91.3127975463867,
ZSJ,Sandy Lake Airport,53.0642013549805,-93.3443984985352,
ZTM,Shamattawa Airport,55.8656005859375,-92.0813980102539,
ZWL,Wollaston Lake Airport,58.1068992614746,-103.171997070313,
BJA,Soummam Airport,36.7120018005,5.06992006302,
ALG,Houari Boumediene Airport,36.6910018920898,3.21540999412537,
DJG,Djanet Inedbirene Airport,24.292801,9.45244,
VVZ,Illizi Takhamalt Airport,26.7234992981,8.62265014648,
QSF,Ain Arnat Airport,36.1781005859,5.32449007034,http://www.egsa-constantine.dz/
TMR,Aguenar – Hadj Bey Akhamok Airport,22.8115005493,5.45107984543,
GJL,Jijel Ferhat Abbas Airport,36.7951011658,5.87361001968,
AAE,Rabah Bitat Airport,36.822201,7.809174,
CZL,Mohamed Boudiaf International Airport,36.2760009765625,6.62038993835449,
TEE,Cheikh Larbi Tébessi Airport,35.4315986633,8.12071990967,
BLJ,Batna Airport,35.7521018982,6.3085899353,
HRM,Hassi R'Mel Airport,32.9304008483887,3.31153988838196,
TIN,Tindouf Airport,27.7003993988,-8.1670999527,
TLM,Zenata – Messali El Hadj Airport,35.0167007446,-1.45000004768,
ORN,Es Senia Airport,35.6239013672,-0.621182978153,
CBH,Béchar Boudghene Ben Ali Lotfi Airport,31.6457004547119,-2.26986002922058,
AZR,Touat Cheikh Sidi Mohamed Belkebir Airport,27.8376007080078,-0.186414003372192,
BSK,Biskra Airport,34.7933006287,5.73823022842,
ELG,El Golea Airport,30.5713005065918,2.85959005355835,
GHA,Noumérat - Moufdi Zakaria Airport,32.3841018676758,3.79411005973816,
HME,Oued Irara Airport,31.6730003357,6.14043998718,
INZ,In Salah Airport,27.2509994507,2.51202011108,
TGR,Touggourt Sidi Madhi Airport,33.067798614502,6.0886697769165,
ELU,Guemar Airport,33.5113983154,6.77679014206,
TMX,Timimoun Airport,29.2371006012,0.276033014059,
OGX,Ain el Beida Airport,31.917200088501,5.41277980804443,
IAM,In Aménas Airport,28.0515003204,9.64291000366,
COO,Cadjehoun Airport,6.3572301864624,2.38435006141663,
OUA,Ouagadougou Airport,12.3531999588013,-1.51242005825043,
BOY,Bobo Dioulasso Airport,11.1600999832153,-4.33096981048584,
ACC,Kotoka International Airport,5.60518980026245,-0.166786000132561,
TML,Tamale Airport,9.55718994140625,-0.863214015960693,
KMS,Kumasi Airport,6.71456003189087,-1.59081995487213,
NYI,Sunyani Airport,7.36183023452759,-2.32875990867615,
TKD,Takoradi Airport,4.8960599899292,-1.77476000785828,
ABJ,Port Bouet Airport,5.261390209198,-3.9262900352478,
BYK,Bouaké Airport,7.73880004882813,-5.07366991043091,
ABV,Nnamdi Azikiwe International Airport,9.00679016113281,7.26316976547241,http://www.faannigeria.org/nigeria-airport.php?airport=3
QUO,Akwa Ibom International Airport,4.8725,8.093,http://www.ibomairport.com.ng/
AKR,Akure Airport,7.24673986434937,5.30101013183594,http://www.faannigeria.org/nigeria-airport.php?airport=21
BCU,Sir Abubakar Tafawa Balewa International Airport,10.482833,9.744,
BNI,Benin Airport,6.31697988510132,5.59950017929077,http://www.faannigeria.org/nigeria-airport.php?airport=22
CBQ,Margaret Ekpo International Airport,4.97601985931397,8.34720039367676,http://www.faannigeria.org/nigeria-airport.php?airport=12
ENU,Akanu Ibiam International Airport,6.47426986694336,7.56196022033691,http://www.faannigeria.org/nigeria-airport.php?airport=11
IBA,Ibadan Airport,7.36246013641357,3.97832989692688,http://www.faannigeria.org/nigeria-airport.php?airport=7
ILR,Ilorin International Airport,8.44021034240723,4.49391984939575,http://www.faannigeria.org/nigeria-airport.php?airport=20
QOW,Sam Mbakwe International Airport,5.4270601272583,7.20602989196777,http://www.faannigeria.org/nigeria-airport.php?airport=17
JOS,Yakubu Gowon Airport,9.63982963562012,8.86905002593994,http://www.faannigeria.org/nigeria-airport.php?airport=15
KAD,Kaduna Airport,10.6960000991821,7.32010984420776,http://www.faannigeria.org/nigeria-airport.php?airport=10
KAN,Mallam Aminu International Airport,12.0476,8.52462,http://www.faannigeria.org/nigeria-airport.php?airport=2
MIU,Maiduguri International Airport,11.855299949646,13.0809001922607,http://www.faannigeria.org/nigeria-airport.php?airport=14
MDI,Makurdi Airport,7.70388,8.61394,http://www.faannigeria.org/nigeria-airport.php?airport=23
LOS,Murtala Muhammed International Airport,6.57737016677856,3.32116007804871,http://www.faannigeria.org/nigeria-airport.php?airport=1
PHC,Port Harcourt International Airport,5.01549005508423,6.94959020614624,http://www.faannigeria.org/nigeria-airport.php?airport=4
SKO,Sadiq Abubakar III International Airport,12.9162998199463,5.20719003677368,http://www.faannigeria.org/nigeria-airport.php?airport=13
YOL,Yola Airport,9.25755023956299,12.4303998947144,http://www.faannigeria.org/nigeria-airport.php?airport=16
NIM,Diori Hamani International Airport,13.481499671936,2.18360996246338,
AJY,Mano Dayak International Airport,16.9659996032715,8.00010967254639,
ZND,Zinder Airport,13.7790002822876,8.98375988006592,
TBJ,Tabarka 7 Novembre Airport,36.9799995422363,8.87693977355957,
MIR,Monastir Habib Bourguiba International Airport,35.7580986022949,10.7546997070313,
TUN,Tunis Carthage International Airport,36.851001739502,10.2271995544434,http://www.oaca.nat.tn/english/div_horizontal_tunis_airport_eng.htm
GAF,Gafsa Ksar International Airport,34.4220008850098,8.82250022888184,
GAE,Gabès Matmata International Airport,33.8768997192383,10.1033000946045,
DJE,Djerba Zarzis International Airport,33.875,10.7755002975464,
SFA,Sfax Thyna International Airport,34.7179985046387,10.6909999847412,
TOE,Tozeur Nefta International Airport,33.9397010803223,8.11056041717529,
LFW,Lomé-Tokoin Airport,6.16560983657837,1.25451004505157,
ANR,Antwerp International Airport (Deurne),51.1893997192,4.46027994156,http://www.antwerp-airport.be/
BRU,Brussels Airport,50.9014015198,4.48443984985,http://www.brusselsairport.be/en/
CRL,Brussels South Charleroi Airport,50.459202,4.45382,http://www.charleroi-airport.com/doc.php?nd=o29&tid=29&lg=2&docid=1&site=1
LGG,Liège Airport,50.6374015808106,5.44322013854981,http://www.liegeairport.be/
OST,Ostend-Bruges International Airport,51.1988983154,2.8622200489,http://www.ost.aero/
AOC,Altenburg-Nobitz Airport,50.9819450378418,12.5063886642456,http://www.leipzig-altenburg-airport.de/
HDF,Heringsdorf Airport,53.8787002563,14.152299881,
SXF,Berlin-Schönefeld Airport,52.380001,13.5225,http://www.berlin-airport.de/en/travellers-sxf/index.php
DRS,Dresden Airport,51.1328010559082,13.7672004699707,http://www.dresden-airport.de/en/index.html
ERF,Erfurt Airport,50.9798011779785,10.9581003189087,http://www.airport-erfurt.de/
FRA,Frankfurt am Main Airport,50.033333,8.570556,http://www.frankfurt-airport.de/
FMO,Münster Osnabrück Airport,52.134601593,7.68483018875,
HAM,Hamburg Airport,53.630401611328,9.9882297515869,https://www.hamburg-airport.de/en/
CGN,Cologne Bonn Airport,50.8658981323,7.1427397728,http://www.koeln-bonn-airport.de/en/
DUS,Düsseldorf Airport,51.289501,6.76678,http://www.dus.com/dus_en/
MUC,Munich Airport,48.353802,11.7861,http://www.munich-airport.com/
NUE,Nuremberg Airport,49.498699,11.078056,https://www.airport-nuernberg.de/english
LEJ,Leipzig/Halle Airport,51.423889,12.236389,http://www.leipzig-halle-airport.de/en/index.html
SCN,Saarbrücken Airport,49.2145996094,7.10950994492,http://www.flughafen-saarbruecken.de/
STR,Stuttgart Airport,48.6898994446,9.22196006775,http://www.flughafen-stuttgart.de/
TXL,Berlin-Tegel Airport,52.5597,13.2877,http://www.berlin-airport.de/en/travellers-txl/index.php
HAJ,Hannover Airport,52.461101532,9.68507957458,
BRE,Bremen Airport,53.0475006104,8.78666973114,
HHN,Frankfurt-Hahn Airport,49.9487,7.26389,
MHG,Mannheim-City Airport,49.473057,8.514167,http://www.flugplatz-mannheim.de/
KEL,Kiel-Holtenau Airport,54.3794441223145,10.1452779769897,
LBC,Lübeck Blankensee Airport,53.8054008484,10.7192001343,
FMM,Memmingen Allgau Airport,47.9888000488,10.2395000458,
PAD,Paderborn Lippstadt Airport,51.6141014099,8.61631965637,
NRN,Weeze Airport,51.6024017334,6.14216995239,http://www.airport-weeze.de/de
DTM,Dortmund Airport,51.5182991028,7.61223983765,
AGB,Augsburg Airport,48.425278,10.931667,
FDH,Friedrichshafen Airport,47.6712989807,9.51148986816,
HOQ,Hof-Plauen Airport,50.2886123657227,11.8563890457153,
FKB,Karlsruhe Baden-Baden Airport,48.7793998718,8.08049964905,http://www.baden-airpark.de/startseite.html
BWE,Braunschweig-Wolfsburg Airport,52.319199,10.5561,http://www.flughafen-braunschweig-wolfsburg.de/
KSF,Kassel-Calden Airport,51.417273,9.384967,http://www.flughafenkassel.de/
GWT,Westerland Sylt Airport,54.9132003784,8.34047031403,
KDL,Kärdla Airport,58.9907989501953,22.8306999206543,
URE,Kuressaare Airport,58.2299003601074,22.50950050354,http://www.eeke.ee/
EPU,Pärnu Airport,58.4189987182617,24.4727993011475,
TLL,Lennart Meri Tallinn Airport,59.4132995605,24.8327999115,http://www.tallinn-airport.ee/eng
TAY,Tartu Airport,58.3074989319,26.6903991699,
ENF,Enontekio Airport,68.362602233887,23.424299240112,http://www.finavia.fi/en/enontekio/
HEL,Helsinki Vantaa Airport,60.317199707031,24.963300704956,http://www.finavia.fi/en/helsinki-airport
IVL,Ivalo Airport,68.607299804688,27.405300140381,http://www.finavia.fi/en/ivalo/
JOE,Joensuu Airport,62.662899017334,29.607500076294,http://www.finavia.fi/en/joensuu/
JYV,Jyvaskyla Airport,62.399501800537,25.678300857544,https://www.finavia.fi/en/jyvaskyla/
KEM,Kemi-Tornio Airport,65.778701782227,24.582099914551,http://www.finavia.fi/en/kemi-tornio/
KAJ,Kajaani Airport,64.285499572754,27.692399978638,https://www.finavia.fi/en/kajaani/
KOK,Kokkola-Pietarsaari Airport,63.721199035645,23.143100738525,https://www.finavia.fi/en/kokkola-pietarsaari/
KAO,Kuusamo Airport,65.987602233887,29.239400863647,http://www.finavia.fi/en/kuusamo/
KTT,Kittilä Airport,67.700996398926,24.846799850464,http://www.finavia.fi/en/kittila/
KUO,Kuopio Airport,63.007099151611,27.797800064087,https://www.finavia.fi/en/kuopio/
MHQ,Mariehamn Airport,60.122200012207,19.898199081421,http://www.finavia.fi/en/mariehamn/
OUL,Oulu Airport,64.930099487305,25.354600906372,https://www.finavia.fi/en/oulu/
POR,Pori Airport,61.461700439453,21.799999237061,http://www.finavia.fi/en/pori/
RVN,Rovaniemi Airport,66.564796447754,25.830400466919,http://www.finavia.fi/en/rovaniemi/
SVL,Savonlinna Airport,61.943099975586,28.945100784302,http://www.finavia.fi/en/savonlinna/
SJY,Seinäjoki Airport,62.692101,22.8323,
TMP,Tampere-Pirkkala Airport,61.414100646973,23.604400634766,https://www.finavia.fi/en/tampere-pirkkala/
TKU,Turku Airport,60.514099121094,22.262800216675,https://www.finavia.fi/en/turku/
VAA,Vaasa Airport,63.050701141357,21.762199401855,http://www.finavia.fi/en/vaasa/
VRK,Varkaus Airport,62.171100616455,27.868600845337,http://www.finavia.fi/en/varkaus/
BFS,Belfast International Airport,54.6575012207,-6.21582984924,http://www.belfastairport.com/
BHD,George Best Belfast City Airport,54.6180992126465,-5.87249994277954,http://www.belfastcityairport.com/
LDY,City of Derry Airport,55.0428009033203,-7.16110992431641,http://www.cityofderryairport.com/
BHX,Birmingham International Airport,52.4538993835,-1.74802994728,http://www.bhx.co.uk/
NQT,Nottingham Airport,52.9199981689453,-1.0791699886322,http://www.nottinghamairport.co.uk/
MAN,Manchester Airport,53.3536987304688,-2.27495002746582,http://www.manchesterairport.co.uk/
DSA,Robin Hood Doncaster Sheffield Airport,53.4805378105,-1.01065635681,http://www.robinhoodairport.com/
CAL,Campbeltown Airport,55.437198638916,-5.6863899230957,http://www.hial.co.uk/campbeltown-airport.html
EOI,Eday Airport,59.190601348877,-2.77221989631653,
FIE,Fair Isle Airport,59.5358009338379,-1.62805998325348,http://www.fairisle.org.uk/egef/index.htm
CWL,Cardiff International Airport,51.3967018127441,-3.34332990646362,http://www.cwlfly.com/
BRS,Bristol Airport,51.382702,-2.71909,http://www.bristolairport.co.uk/
LPL,Liverpool John Lennon Airport,53.3335990905762,-2.8497200012207,http://www.liverpoolairport.com/
LTN,London Luton Airport,51.874698638916,-0.368333011865616,http://www.london-luton.co.uk/en/
LEQ,Land's End Airport,50.102798,-5.67056,http://www.landsendairport.co.uk/
ISC,St. Mary's Airport,49.9132995605469,-6.29166984558106,http://www.scilly.gov.uk/transport/airandsea/airport/
BOH,Bournemouth Airport,50.7799987792969,-1.84249997138977,http://www.bournemouthairport.com/
SOU,Southampton Airport,50.9502983093262,-1.35679996013641,http://www.southamptonairport.com/
NQY,Newquay Cornwall Airport,50.440601348877,-4.99540996551514,http://www.newquaycornwallairport.com/
ACI,Alderney Airport,49.706104,-2.21472,
GCI,Guernsey Airport,49.435001373291,-2.60196995735168,
JER,Jersey Airport,49.2079010009766,-2.1955099105835,http://www.jerseyairport.com/
LGW,London Gatwick Airport,51.1481018066406,-0.190277993679047,http://www.gatwickairport.com/
LCY,London City Airport,51.505299,0.055278,http://www.londoncityairport.com/
LHR,London Heathrow Airport,51.4706,-0.461941,http://www.heathrowairport.com/
SEN,Southend Airport,51.5713996887207,0.695555984973908,http://www.southendairport.com/
LYX,Lydd Airport,50.9561004638672,0.939167022705078,http://www.lydd-airport.co.uk/
BLK,Blackpool International Airport,53.7717018127441,-3.02860999107361,http://www.blackpoolinternational.com/
HUY,Humberside Airport,53.5744018554688,-0.350832998752594,http://www.humbersideairport.com/
LBA,Leeds Bradford Airport,53.8658981323242,-1.66057002544403,http://www.lbia.co.uk/
CEG,Hawarden Airport,53.1781005859375,-2.97778010368347,
IOM,Isle of Man Airport,54.0833015441895,-4.6238899230957,http://www.iom-airport.com/
NCL,Newcastle Airport,55.0374984741211,-1.69166994094849,http://www.newcastleairport.com/
MME,Durham Tees Valley Airport,54.5092010498047,-1.42940998077393,http://www.durhamteesvalleyairport.com/
EMA,East Midlands Airport,52.8311004639,-1.32806003094,http://www.eastmidlandsairport.com/
VLY,Anglesey Airport,53.2481002808,-4.53533983231,http://www.angleseyairport.com/
KOI,Kirkwall Airport,58.9578018188477,-2.90499997138977,
LSI,Sumburgh Airport,59.8788986206055,-1.29556000232697,http://www.hial.co.uk/sumburgh-airport.html
WIC,Wick Airport,58.4589004516602,-3.09306001663208,http://www.hial.co.uk/wick-airport.html
ABZ,Aberdeen Dyce Airport,57.2019004821777,-2.19777989387512,http://www.aberdeenairport.com/
INV,Inverness Airport,57.5424995422363,-4.0475001335144,http://www.hial.co.uk/inverness-airport.html
GLA,Glasgow International Airport,55.8718986511,-4.43306016922,http://www.glasgowairport.com/
EDI,Edinburgh Airport,55.9500007629395,-3.37249994277954,http://www.edinburghairport.com/
ILY,Islay Airport,55.6819000244141,-6.25666999816895,
PIK,Glasgow Prestwick Airport,55.5093994140625,-4.586669921875,http://www.glasgowprestwick.com/
BEB,Benbecula Airport,57.4810981750488,-7.36278009414673,http://www.hial.co.uk/benbecula-airport.html
DND,Dundee Airport,56.4524993896484,-3.02583003044128,http://www.hial.co.uk/dundee-airport.html
SYY,Stornoway Airport,58.2155990600586,-6.33111000061035,http://www.hial.co.uk/stornoway-airport.html
BRR,Barra Airport,57.0228,-7.44306,http://www.hial.co.uk/barra-airport.html
TRE,Tiree Airport,56.4991989135742,-6.86917018890381,http://www.hial.co.uk/tiree-airport.html
NWI,Norwich International Airport,52.6758003235,1.28278005123,http://www.norwichairport.co.uk/
STN,London Stansted Airport,51.8849983215,0.234999999404,http://www.stanstedairport.com/
EXT,Exeter International Airport,50.7344017028809,-3.41388988494873,http://www.exeter-airport.co.uk/
BZZ,RAF Brize Norton,51.75,-1.58362,http://www.raf.mod.uk/rafbrizenorton/passengers/
MPN,Mount Pleasant Airport,-51.8227996826172,-58.4472007751465,
AMS,Amsterdam Airport Schiphol,52.3086013794,4.76388978958,http://www.schiphol.nl/
MST,Maastricht Aachen Airport,50.9117012024,5.77014017105,
EIN,Eindhoven Airport,51.4500999451,5.37452983856,http://www.eindhovenairport.nl/
GRQ,Eelde Airport,53.1197013855,6.57944011688,
RTM,Rotterdam The Hague Airport,51.956902,4.43722,
ORK,Cork Airport,51.8413009643555,-8.49110984802246,http://www.corkairport.com/
GWY,Galway Airport,53.3002014160156,-8.94159030914307,http://www.galwayairport.com/
CFN,Donegal Airport,55.0442008972168,-8.34099960327148,http://www.donegalairport.ie/
DUB,Dublin Airport,53.421299,-6.27007,http://www.dublinairport.com/
NOC,Ireland West Knock Airport,53.9103012084961,-8.81849002838135,http://www.irelandwestairport.com/
KIR,Kerry Airport,52.1809005737305,-9.52377986907959,http://www.kerryairport.ie/
SNN,Shannon Airport,52.701999664307,-8.9248199462891,http://www.shannonairport.com/
WAT,Waterford Airport,52.187198638916,-7.08695983886719,http://flywaterford.com/
AAR,Aarhus Airport,56.2999992371,10.6190004349,http://www.aar.dk/default.asp?id=87
BLL,Billund Airport,55.7402992249,9.15178012848,http://www.billund-airport.dk/?sc_lang=en
CPH,Copenhagen Kastrup Airport,55.617900848389,12.656000137329,http://www.cph.dk/en/
EBJ,Esbjerg Airport,55.525902,8.5534,http://www.esbjerg-lufthavn.dk/en/
KRP,Karup Airport,56.2975006103516,9.12462997436523,
ODE,Odense Airport,55.4766998291016,10.3309001922607,
RNN,Bornholm Airport,55.0633010864258,14.7595996856689,http://www.bornholms-lufthavn.dk/en/
SGD,Sønderborg Airport,54.9644012451172,9.79172992706299,
CNL,Sindal Airport,57.5035018921,10.2293996811,http://www.eksn.dk/
FAE,Vagar Airport,62.0635986328125,-7.27721977233887,http://www.floghavn.fo/
AAL,Aalborg Airport,57.0927589138,9.84924316406,http://www.aal.dk
LUX,Luxembourg-Findel International Airport,49.6233333,6.2044444,http://www.lux-airport.lu/en/
AES,Ålesund Airport,62.5625,6.11969995498657,http://www.avinor.no/lufthavn/alesund
ANX,Andøya Airport,69.292503356934,16.144199371338,https://avinor.no/en/airport/andoya-airport/
ALF,Alta Airport,69.976097106934,23.371700286865,https://avinor.no/en/airport/alta-airport/
BNN,Brønnøysund Airport,65.461097717285,12.217499732971,https://avinor.no/en/airport/bronnoysund-airport/
BOO,Bodø Airport,67.2692031860352,14.3653001785278,http://www.avinor.no/en/airport/bodo/frontpage
BGO,Bergen Airport Flesland,60.29339981,5.218140125,http://www.avinor.no/en/airport/bergen
BJF,Båtsfjord Airport,70.60050201416,29.691400527954,https://avinor.no/en/airport/batsfjord-airport/
BVG,Berlevåg Airport,70.871398925781,29.034200668335,https://avinor.no/en/airport/berlevag-airport/
KRS,Kristiansand Airport,58.204201,8.08537,http://www.avinor.no/en/airport/kristiansand
BDU,Bardufoss Airport,69.055801391602,18.540399551392,https://avinor.no/en/airport/bardufoss-airport/
EVE,"Harstad/Narvik Airport, Evenes",68.491302490234,16.678100585938,https://avinor.no/en/airport/harstadnarvik-airport/
VDB,Leirin Airport,61.015598297119,9.2880601882935,https://avinor.no/en/airport/fagernes-airport/
FRO,Florø Airport,61.583599090576,5.0247201919556,https://avinor.no/en/airport/floro-airport/
OSL,Oslo Gardermoen Airport,60.193901062012,11.100399971008,https://avinor.no/en/airport/oslo-airport
HAU,Haugesund Airport,59.34529876709,5.2083601951599,https://avinor.no/en/airport/haugesund-airport/
HFT,Hammerfest Airport,70.679702758789,23.668600082397,https://avinor.no/en/airport/hammerfest-airport/
HVG,Valan Airport,71.009696960449,25.983600616455,https://avinor.no/en/airport/honningsvag-airport/
KSU,Kristiansund Airport (Kvernberget),63.111801147461,7.824520111084,https://avinor.no/en/airport/kristiansund-airport/
KKN,Kirkenes Airport (Høybuktmoen),69.725799560547,29.891300201416,https://avinor.no/en/airport/kirkenes-airport/
LKN,Leknes Airport,68.152496337891,13.609399795532,https://avinor.no/en/airport/leknes-airport/
MEH,Mehamn Airport,71.02970123291,27.826700210571,https://avinor.no/en/airport/mehamn-airport/
MOL,Molde Airport,62.744701385498,7.2624998092651,https://avinor.no/en/airport/molde-airport/
MJF,Mosjøen Airport (Kjærstad),65.783996582031,13.214900016785,https://avinor.no/en/airport/mosjoen-airport/
LKL,Banak Airport,70.068801879883,24.973499298096,https://avinor.no/en/airport/lakselv-airport/
NVK,Narvik Framnes Airport,68.436897277832,17.386699676514,https://avinor.no/en/airport/narvik-airport/
NTB,Notodden Airport,59.565701,9.21222,http://www.notodden-flyplass.no/
OLA,Ørland Airport,63.6988983154297,9.60400009155273,
HOV,"Ørsta-Volda Airport, Hovden",62.180000305176,6.0741000175476,https://avinor.no/en/airport/orsta-volda-airport/
MQN,"Mo i Rana Airport, Røssvoll",66.363899230957,14.301400184631,https://avinor.no/en/airport/mo-i-rana-airport/
RVK,"Rørvik Airport, Ryum",64.838302612305,11.14610004425,https://avinor.no/en/airport/rorvik-airport/
RRS,Røros Airport,62.578399658203,11.342300415039,https://avinor.no/en/airport/roros-airport/
RYG,Moss-Rygge Airport,59.378817,10.785439,http://www.en.ryg.no/
LYR,"Svalbard Airport, Longyear",78.246101379395,15.465600013733,https://avinor.no/en/airport/svalbard-airport/
SVJ,Svolvær Helle Airport,68.243301391602,14.669199943542,https://avinor.no/en/airport/svolvar-airport/
SKN,Stokmarknes Skagen Airport,68.578826904297,15.033416748047,https://avinor.no/en/airport/stokmarknes-airport/
SRP,Stord Airport,59.7919006347656,5.34084987640381,
SOJ,Sørkjosen Airport,69.786796569824,20.959400177002,https://avinor.no/en/airport/sorkjosen-airport/
VAW,"Vardø Airport, Svartnes",70.355400085449,31.044900894165,https://avinor.no/en/airport/vardo-airport/
SSJ,Sandnessjøen Airport (Stokka),65.956802368164,12.468899726868,https://avinor.no/en/airport/sandnessjoen-airport/
TOS,Tromsø Airport,69.6832962036133,18.9188995361328,http://www.avinor.no/en/airport/tromso
TRF,"Sandefjord Airport, Torp",59.1866989136,10.258600235,
TRD,Trondheim Airport Værnes,63.4578018,10.9239998,https://avinor.no/en/airport/trondheim-airport/
VDS,Vadsø Airport,70.065299987793,29.844699859619,https://avinor.no/en/airport/vadso-airport/
SVG,Stavanger Airport Sola,58.876701354,5.6377801895,http://www.avinor.no/en/airport/stavanger/
BZG,Bydgoszcz Ignacy Jan Paderewski Airport,53.0968017578,17.9776992798,http://www.plb.pl/
GDN,Gdańsk Lech Wałęsa Airport,54.3776016235352,18.4661998748779,http://www.airport.gdansk.pl/
KRK,John Paul II International Airport Kraków-Balice Airport,50.0777015686035,19.7847995758057,http://lotnisko-balice.pl/en.html
KTW,Katowice International Airport,50.4743,19.08,http://katowice.airport.com
LCJ,Łódź Władysław Reymont Airport,51.7219009399,19.3980998993,
WMI,Modlin Airport,52.4510993958,20.6518001556,http://modlinairport.pl/
POZ,Poznań-Ławica Airport,52.4210014343,16.8262996674,http://www.airport-poznan.com.pl/en/
RDO,Radom Airport,51.3891983032,21.213300705,http://lotnisko-radom.eu/pl/
RZE,Rzeszów-Jasionka Airport,50.1100006104,22.0189990997,http://www.lotnisko-rzeszow.pl/?lang=en
SZZ,"Szczecin-Goleniów ""Solidarność"" Airport",53.5847015381,14.9021997452,http://www.airport.com.pl/en/index.php
SZY,Olsztyn-Mazury Airport,53.481899,20.9377,http://mazuryairport.pl/
WAW,Warsaw Chopin Airport,52.1656990051,20.9671001434,http://www.lotnisko-chopina.pl/?lang=en
WRO,Copernicus Wrocław Airport,51.1026992798,16.885799408,http://www.airport.wroclaw.pl/en/index.php
IEG,Zielona Góra-Babimost Airport,52.1385002136,15.7986001968,http://www.lotnisko.zielonagora.pl/
RNB,Ronneby Airport,56.266700744629,15.265000343323,https://www.swedavia.com/ronneby/
GOT,Gothenburg-Landvetter Airport,57.662799835205,12.279800415039,https://www.swedavia.com/landvetter/
JKG,Jönköping Airport,57.7575988769531,14.068699836731,http://www.lfv.se/templates/LFV_AirportStartPage____1672.aspx
GSE,Gothenburg City Airport,57.7747001647949,11.870400428772,http://www.goteborgairport.se/
THN,Trollhättan-Vänersborg Airport,58.3180999755859,12.3450002670288,
MXX,Mora Airport,60.957901,14.5114,
NYO,Stockholm Skavsta Airport,58.7886009216309,16.9122009277344,
KID,Kristianstad Airport,55.9216995239258,14.0854997634888,
KLR,Kalmar Airport,56.6855010986328,16.2875995635986,
MMX,Malmö Sturup Airport,55.536305364,13.3761978149,http://www.swedavia.com/malmo/
HAD,Halmstad Airport,56.6911010742188,12.8201999664307,
VXO,Växjö Kronoberg Airport,56.9291000366211,14.7279996871948,
EVG,Sveg Airport,62.0477981567383,14.4229001998901,
GEV,Gällivare Airport,67.1324005126953,20.8145999908447,
KRF,Kramfors Sollefteå Airport,63.0485992431641,17.7688999176025,
LYC,Lycksele Airport,64.5483016967773,18.7161998748779,
SDL,Sundsvall-Härnösand Airport,62.5280990600586,17.4438991546631,
OER,Örnsköldsvik Airport,63.4082984924316,18.9899997711182,
KRN,Kiruna Airport,67.821998596191,20.336799621582,https://www.swedavia.com/kiruna/
SFT,Skellefteå Airport,64.6248016357422,21.0769004821777,
UME,Umeå Airport,63.791801452637,20.282800674438,https://www.swedavia.com/umea/
VHM,Vilhelmina Airport,64.5791015625,16.8335990905762,
AJR,Arvidsjaur Airport,65.5903015136719,19.2819004058838,
OSD,Åre Östersund Airport,63.194400787354,14.50030040741,https://www.swedavia.com/ostersund/
ORB,Örebro Airport,59.2237014770508,15.0380001068115,
HFS,Hagfors Airport,60.0200996398926,13.5789003372192,
KSD,Karlstad Airport,59.4446983337,13.3374004364,
VST,Stockholm Västerås Airport,59.5894012451172,16.6336002349854,
LLA,Luleå Airport,65.543800354004,22.121999740601,https://www.swedavia.com/lulea/
ARN,Stockholm-Arlanda Airport,59.651901245117,17.918600082397,http://www.swedavia.se/arlanda/
BMA,Stockholm-Bromma Airport,59.3544006347656,17.9416999816895,
BLE,Borlange Airport,60.4220008850098,15.5151996612549,
LPI,Linköping City Airport,58.4062004089,15.6805000305,http://www.linkopingsflygplats.se/
NRK,Norrköping Airport,58.5862998962402,16.2506008148193,
TYF,Torsby Airport,60.1576004028,12.9912996292,http://www.torsbyflygplats.se
VBY,Visby Airport,57.662799835205,18.346200942993,https://www.swedavia.com/visby/
AGH,Ängelholm-Helsingborg Airport,56.2961006164551,12.8471002578735,http://www.lfv.se/templates/LFV_AirportStartPage____4777.aspx
SQO,Storuman Airport,64.9608993530273,17.6965999603271,
HMV,Hemavan Airport,65.8060989379883,15.082799911499,
RLG,Rostock-Laage Airport,53.9182014465,12.2783002853,
LPX,Liepāja International Airport,56.5175018310547,21.0969009399414,http://www.liepaja-airport.lv/
RIX,Riga International Airport,56.9235992431641,23.9710998535156,http://www.riga-airport.com/
VNT,Ventspils International Airport,57.35779953,21.5442008972,http://www.airport.ventspils.lv/
KUN,Kaunas International Airport,54.9639015197754,24.0848007202148,http://www.kaunasair.lt/index.php?lang=2&m=2&p=210
PLQ,Palanga International Airport,55.973201751709,21.093900680542,http://www.palanga-airport.lt/
VNO,Vilnius International Airport,54.634102,25.285801,http://www.vilnius-airport.lt/en/
BFN,Bram Fischer International Airport,-29.0926990509,26.302400589,
CPT,Cape Town International Airport,-33.9648017883,18.6016998291,http://www.airports.co.za/home.asp?pid=229
ELS,Ben Schoeman Airport,-33.0355987549,27.8258991241,http://www.airports.co.za/home.asp?pid=415
GRJ,George Airport,-34.0056,22.378902,
QRA,Rand Airport,-26.2425003052,28.1511993408,
JNB,OR Tambo International Airport,-26.1392,28.246,http://www.acsa.co.za/home.asp?pid=228
KIM,Kimberley Airport,-28.8027992249,24.7651996613,
MQP,Kruger Mpumalanga International Airport,-25.3831996918,31.1056003571,
HLA,Lanseria Airport,-25.9384994507,27.9260997772,
DUR,King Shaka International Airport,-29.6144444444,31.1197222222,
AAM,Malamala Airport,-24.8180999755859,31.5445995330811,
MGH,Margate Airport,-30.8574008942,30.343000412,
MBD,Mmabatho International Airport,-25.7984008789,25.5480003357,
JNB,OR Tambo International Airport,-26.1392,28.246,
PLZ,Port Elizabeth Airport,-33.9849014282,25.6173000336,http://www.acsa.co.za/home.asp?pid=236
PHW,Hendrik Van Eck Airport,-23.9372005463,31.1553993225,
PZB,Pietermaritzburg Airport,-29.6490001678,30.3987007141,
PTG,Polokwane International Airport,-23.845269,29.458615,
RCB,Richards Bay Airport,-28.7409992218,32.0920982361,
UTN,Pierre Van Ryneveld Airport,-28.39909935,21.2602005005,
UTT,K. D. Matanzima Airport,-31.5463631849,28.6733551025,
PRY,Wonderboom Airport,-25.6539,28.224199,http://www.wonderboomairport.co.za/
FRW,Francistown Airport,-21.1595993041992,27.4745006561279,
JWA,Jwaneng Airport,-24.6023006439209,24.6909999847412,
BBK,Kasane Airport,-17.8328990936279,25.1623992919922,
MUB,Maun Airport,-19.9726009368896,23.4311008453369,
GBE,Sir Seretse Khama International Airport,-24.5552005767822,25.9181995391846,
PKW,Selebi Phikwe Airport,-22.0583,27.8288,
BZV,Maya-Maya Airport,-4.25169992446899,15.2530002593994,
DIS,Ngot Nzoungou Airport,-4.20635,12.6599,
PNR,Pointe Noire Airport,-4.81603002548218,11.8865995407105,
MTS,Matsapha Airport,-26.5289993286133,31.3075008392334,
SHO,King Mswati III International Airport,-26.358611,31.716944,http://www.swacaa.co.sz/airports/sikhuphe/
BGF,Bangui M'Poko International Airport,4.39847993850708,18.5188007354736,
BSG,Bata Airport,1.90547001361847,9.80568027496338,
SSG,Malabo Airport,3.75527000427246,8.70872020721436,
MRU,Sir Seewoosagur Ramgoolam International Airport,-20.4302005767822,57.6836013793945,http://aml.mru.aero/
RRG,Sir Charles Gaetan Duval Airport,-19.7577,63.361,
DLA,Douala International Airport,4.0060801506,9.71947956085,
MVR,Salak Airport,10.4513998031616,14.257399559021,
NGE,N'Gaoundéré Airport,7.35700988769531,13.5592002868652,
GOU,Garoua International Airport,9.33588981628418,13.3701000213623,
YAO,Yaoundé Airport,3.83604001998901,11.5235004425049,
NSI,Yaoundé Nsimalen International Airport,3.72255992889404,11.5532999038696,
LVI,Livingstone Airport,-17.8218002319336,25.8227005004883,
LUN,Kenneth Kaunda International Airport Lusaka,-15.3308000565,28.4526004791,http://www.nacl.co.zm/?page_id=336
MFU,Mfuwe Airport,-13.2588996887207,31.9365997314453,
NLA,Simon Mwansa Kapwepwe International Airport,-12.998100280762,28.66489982605,
HAH,Prince Said Ibrahim International Airport,-11.5337,43.2719,
NWA,Mohéli Bandar Es Eslam Airport,-12.2981004714966,43.7663993835449,
AJN,Ouani Airport,-12.1316995620728,44.4303016662598,
DZA,Dzaoudzi Pamandzi International Airport,-12.8046998977661,45.2811012268066,
RUN,Roland Garros Airport,-20.8871002197266,55.5102996826172,http://www.reunion.aeroport.fr/index.htm
ZSE,Pierrefonds Airport,-21.3208999633789,55.4249992370606,http://www.grandsudreunion.org/FR2004/aeroport.php
TNR,Ivato Airport,-18.7968997955,47.4788017273,
ZVA,Miandrivazo Airport,-19.5627994537354,45.4508018493652,
SMS,Sainte Marie Airport,-17.093900680542,49.8157997131348,
TMM,Toamasina Airport,-18.1095008850098,49.3925018310547,
MOQ,Morondava Airport,-20.2847003936768,44.3176002502441,
DIE,Arrachart Airport,-12.3493995666504,49.2916984558106,
WMR,Mananara Nord Airport,-16.1639003753662,49.7737998962402,
ANM,Antsirabato Airport,-14.999400138855,50.3202018737793,
HVA,Analalava Airport,-14.6296997070313,47.763801574707,
MJN,Amborovy Airport,-15.6668417421,46.3512325287,
NOS,Fascene Airport,-13.3121004105,48.3148002625,
BPY,Besalampy Airport,-16.7445302965,44.4824838638,
WMN,Maroantsetra Airport,-15.4366998672485,49.6883010864258,
SVB,Sambava Airport,-14.2785997390747,50.1747016906738,
VOH,Vohimarina Airport,-13.3758001327515,50.002799987793,
WAI,Ambalabe Airport,-14.8987998962402,47.9939002990723,
FTU,Tôlanaro Airport,-25.0380992889404,46.9561004638672,
WFI,Fianarantsoa Airport,-21.4416007995605,47.1116981506348,
WVK,Manakara Airport,-22.1196994781494,48.0217018127441,
MNJ,Mananjary Airport,-21.2017993927002,48.3582992553711,
MXM,Morombe Airport,-21.7539005279541,43.3754997253418,
TLE,Toliara Airport,-23.3833999633789,43.7285003662109,
SSY,Mbanza Congo Airport,-6.26989984512329,14.2469997406006,
CAB,Cabinda Airport,-5.59699010848999,12.1884002685547,
CBT,Catumbela Airport,-12.4792,13.4869,
DUE,Dundo Airport,-7.40088987350464,20.8185005187988,
VPE,Ngjiva Pereira Airport,-17.0435009003,15.6837997437,
NOV,Nova Lisboa Airport,-12.8088998794556,15.7604999542236,
LAD,Quatro de Fevereiro Airport,-8.85836982727,13.2312002182,
MEG,Malanje Airport,-9.52509021759033,16.3124008178711,
SPP,Menongue Airport,-14.657600402832,17.7198009490967,
MSZ,Namibe Airport,-15.2611999511719,12.1468000411987,
GXG,Negage Airport,-7.75450992584229,15.2876996994019,
SZA,Soyo Airport,-6.14108991622925,12.3718004226685,
SDD,Lubango Airport,-14.9246997833252,13.5749998092651,
KOU,Koulamoutou Mabimbi Airport,-1.1846100091934,12.441300392151,
MJL,Mouilla Ville Airport,-1.84513998031616,11.0566997528076,
OYE,Oyem Airport,1.54311001300812,11.5813999176025,
POG,Port Gentil Airport,-0.711739003658295,8.75438022613525,
MKU,Makokou Airport,0.579210996627808,12.8908996582031,
LBV,Libreville Leon M'ba International Airport,0.458600014448,9.4122800827,http://www.adlgabon.com
MVB,M'Vengue El Hadj Omar Bongo Ondimba International Airport,-1.65615999698639,13.4379997253418,
PCP,Principe Airport,1.66294002532959,7.41173982620239,
TMS,São Tomé International Airport,0.378174990415573,6.71215009689331,
BEW,Beira Airport,-19.7964000701904,34.907600402832,
VPY,Chimoio Airport,-19.1513004302979,33.4290008544922,
INH,Inhambane Airport,-23.8763999938965,35.4085006713867,
VXC,Lichinga Airport,-13.274,35.2663,
MPM,Maputo Airport,-25.9207992553711,32.5726013183594,
APL,Nampula Airport,-15.1056003570557,39.2817993164062,
POL,Pemba Airport,-12.9917621612549,40.5240135192871,
UEL,Quelimane Airport,-17.8554992675781,36.8690986633301,
TET,Chingozi Airport,-16.1047992706299,33.6402015686035,
VNX,Vilankulo Airport,-22.0184001922607,35.3133010864258,
BVE,Brive Souillac Airport,45.039722,1.485556,http://aeroport-brive-vallee-dordogne.com/
SEZ,Seychelles International Airport,-4.67433977127075,55.521800994873,
PRI,Praslin Airport,-4.31929016113281,55.6913986206055,
AEH,Abeche Airport,13.8470001220703,20.8442993164063,
MQQ,Moundou Airport,8.62440967559814,16.0713996887207,
NDJ,N'Djamena International Airport,12.1337003707886,15.0340003967285,
BUQ,Joshua Mqabuko Nkomo International Airport,-20.0174007415771,28.6179008483887,
VFA,Victoria Falls International Airport,-18.0958995819092,25.8390007019043,
HRE,Harare International Airport,-17.9318008422852,31.0928001403809,
BLZ,Chileka International Airport,-15.6791000366211,34.9739990234375,
LLW,Lilongwe International Airport,-13.7894001007,33.78099823,
ZZU,Mzuzu Airport,-11.4447002410889,34.0117988586426,
MSU,Moshoeshoe I International Airport,-29.4622993469238,27.5524997711182,
LUD,Luderitz Airport,-26.6874008178711,15.2428998947144,
OND,Ondangwa Airport,-17.878201,15.9526,
OMD,Oranjemund Airport,-28.5846996307373,16.4466991424561,
NDU,Rundu Airport,-17.956499099731,19.719400405884,
WVB,Walvis Bay Airport,-22.9799,14.6453,
ERS,Eros Airport,-22.6121997833252,17.0804004669189,
WDH,Hosea Kutako International Airport,-22.4799,17.4709,
FIH,Ndjili International Airport,-4.38574981689,15.4446001053,
FDU,Bandundu Airport,-3.31132006645203,17.3817005157471,
KKW,Kikwit Airport,-5.03576993942261,18.7856006622314,
MDK,Mbandaka Airport,0.0226000007242,18.2887001038,
BDT,Gbadolite Airport,4.25321006774902,20.9752998352051,
GMA,Gemena Airport,3.23536992073,19.7712993622,
FKI,Bangoka International Airport,0.481638997793,25.3379993439,
IRP,Matari Airport,2.82761001586914,27.5883007049561,
BUX,Bunia Airport,1.56571996212006,30.2208003997803,
GOM,Goma International Airport,-1.67080998420715,29.2385005950928,
KND,Kindu Airport,-2.91917991638,25.9153995514,
FBM,Lubumbashi International Airport,-11.5913000107,27.5308990479,
KWZ,Kolwezi Airport,-10.7658996582031,25.5056991577148,
FMI,Kalemie Airport,-5.87555980682373,29.25,
KGA,Kananga Airport,-5.90005016327,22.4692001343,
MJM,Mbuji Mayi Airport,-6.12124013901,23.5690002441,
BKO,Senou Airport,12.5334997177124,-7.94994020462036,
GAQ,Gao Airport,16.2483997344971,-0.005456000100821,
KYS,Kayes Dag Dag Airport,14.4812002182007,-11.4043998718262,
MZI,Mopti Airport,14.5128002167,-4.07955980301,
TOM,Timbuktu Airport,16.7304992675781,-3.00758004188538,
OUK,Outer Skerries Airport,60.4252,-0.75,
BJL,Banjul International Airport,13.3380002975464,-16.6522006988525,
FUE,Fuerteventura Airport,28.4526996612549,-13.8638000488281,
VDE,Hierro Airport,27.8148002624512,-17.8871002197266,
SPC,La Palma Airport,28.6264991760254,-17.7555999755859,
LPA,Gran Canaria Airport,27.9319000244141,-15.3865995407104,http://www.aena.es/csee/Satellite?pagename=subHome&Language=EN_GB&c=Page&SiteName=LPA&cid=1048858940184
ACE,Lanzarote Airport,28.945499420166,-13.6051998138428,
TFS,Tenerife South Airport,28.044500351,-16.5725002289,
TFN,Tenerife Norte Airport,28.4827003479,-16.3414993286,
MLN,Melilla Airport,35.279800415,-2.9562599659,
BTE,Sherbro International Airport,7.53242015838623,-12.5188999176025,
KBS,Bo Airport,7.9443998336792,-11.7609996795654,
KEN,Kenema Airport,7.89129018783569,-11.1766004562378,
FNA,Lungi International Airport,8.61643981933594,-13.1955003738403,http://www.freetownairport.com/
WYE,Yengema Airport,8.61046981811523,-11.0453996658325,
OXB,Osvaldo Vieira International Airport,11.8948001861572,-15.6536998748779,
MLW,Spriggs Payne Airport,6.28906011581421,-10.7587003707886,
ROB,Roberts International Airport,6.23378992080689,-10.3622999191284,
AGA,Al Massira Airport,30.3250007629395,-9.41306972503662,
TTA,Tan Tan Airport,28.4482002258301,-11.1612997055054,
FEZ,Saïss Airport,33.9272994995,-4.97796010971,
ERH,Moulay Ali Cherif Airport,31.9475002289,-4.39833021164,
OUD,Angads Airport,34.7872009277344,-1.92399001121521,
SMW,Smara Airport,26.7318,-11.6847,
RBA,Rabat-Salé Airport,34.051498,-6.75152,
VIL,Dakhla Airport,23.7183,-15.932,
EUN,Hassan I Airport,27.151699,-13.2192,
CMN,Mohammed V International Airport,33.3675003051758,-7.58997011184692,http://www.onda.ma/ONDA/Fr/Espaces/EspacePassagers/LeReseauAeroportuaireONDA/Lesaeroports/Fiches+d%E2%80%99identit%C3%A9+par+a%C
NDR,Nador International Airport,34.9888000488,-3.0282099247,
RAK,Menara Airport,31.6068992615,-8.03629970551,
OZZ,Ouarzazate Airport,30.9391002655,-6.90943002701,
GMQ,Golog Maqin Airport,34.418066,100.301144,
AHU,Cherif Al Idrissi Airport,35.1771011352539,-3.83951997756958,
TNG,Ibn Batouta Airport,35.7268981934,-5.91689014435,
DSS,Diass-Thies Blaise Diagne International Airport,14.67,-17.073333333,http://www.dakaraeroport.com/
ZIG,Ziguinchor Airport,12.5556,-16.281799,
CSK,Cap Skirring Airport,12.39533,-16.748,
DKR,Léopold Sédar Senghor International Airport,14.7397003173828,-17.4902000427246,http://www.aeroportdakar.com/
MAX,Ouro Sogui Airport,15.5936002731323,-13.3227996826172,
XLS,Saint Louis Airport,16.0508003234863,-16.4631996154785,
TUD,Tambacounda Airport,13.7368001937866,-13.6531000137329,
NKC,Nouakchott–Oumtounsy International Airport,18.31,-15.9697222,
NDB,Nouadhibou International Airport,20.9330997467041,-17.0300006866455,
CKY,Conakry International Airport,9.57689,-13.612,http://www.aeroport-conakry.com/aeroport_international_de_conakry.php
SID,Amílcar Cabral International Airport,16.7413997650146,-22.9493999481201,
BVC,Rabil Airport,16.1364994049072,-22.8889007568359,
MMO,Maio Airport,15.1559000015259,-23.2136993408203,
RAI,Praia International Airport,14.9245004653931,-23.4934997558594,
SNE,Preguiça Airport,16.588399887085,-24.2847003936768,
ADD,Addis Ababa Bole International Airport,8.97789001465,38.7993011475,http://www.ethiopianairports.com
AMH,Arba Minch Airport,6.03939008712769,37.5904998779297,
AXU,Axum Airport,14.1468000411987,38.7728004455566,
BJR,Bahir Dar Airport,11.608099937439,37.3216018676758,
DIR,Aba Tenna Dejazmach Yilma International Airport,9.62469959259033,41.8541984558105,
GMB,Gambella Airport,8.12876033782959,34.5630989074707,
GDQ,Gonder Airport,12.5199003219604,37.4339981079102,
GDE,Gode Airport,5.93513011932,43.5786018372,
JIJ,Wilwal International Airport,9.3325,42.9121,
JIM,Jimma Airport,7.66609001159668,36.8166007995605,
ASO,Asosa Airport,10.018500328064,34.5862998962402,
BJM,Bujumbura International Airport,-3.32401990890503,29.3185005187988,
HGA,Egal International Airport,9.51817035675049,44.0887985229492,
BBO,Berbera Airport,10.3892002105713,44.9411010742188,
MGQ,Aden Adde International Airport,2.01444005966187,45.3046989440918,
JIB,Djibouti-Ambouli Airport,11.5473003387451,43.1595001220703,
AAC,El Arish International Airport,31.073299408,33.8358001709,
ATZ,Assiut International Airport,27.0464992523,31.0119991302,
ALY,El Nouzha Airport,31.1839008331299,29.9489002227783,
HBE,Borg El Arab International Airport,30.9176998138428,29.6963996887207,
ABS,Abu Simbel Airport,22.3759994507,31.611700058,
CAI,Cairo International Airport,30.1219005584717,31.4055995941162,
HRG,Hurghada International Airport,27.1783008575439,33.7994003295898,
LXR,Luxor International Airport,25.671,32.7066,
RMF,Marsa Alam International Airport,25.557100296,34.5836982727,http://www.marsa-alam-airport.com
HMB,Sohag International Airport,26.342778,31.742778,
SSH,Sharm El Sheikh International Airport,27.9773006439,34.3950004578,
ASW,Aswan International Airport,23.9643993378,32.8199996948,
ASM,Asmara International Airport,15.2918996810913,38.910701751709,
MSW,Massawa International Airport,15.6700000762939,39.3700981140137,
ASA,Assab International Airport,13.0718002319336,42.6450004577637,
ASV,Amboseli Airport,-2.64505004882812,37.253101348877,
EDL,Eldoret International Airport,0.404457986354828,35.238899230957,http://www.kenyaairports.co.ke/kaa/airports/eldoret/
NBO,Jomo Kenyatta International Airport,-1.31923997402,36.9277992249,http://www.kenyaairports.com/jkia/IndexJkia.php
KIS,Kisumu Airport,-0.086139000952244,34.7289009094238,http://www.kenyaairports.co.ke/kaa/airports/kisumu/
LKG,Lokichoggio Airport,4.20412015914917,34.348201751709,http://www.kenyaairports.co.ke/kaa/airports/loki/
LAU,Manda Airstrip,-2.25241994857788,40.9131011962891,http://www.kenyaairports.co.ke/kaa/airports/airstrips/manda_intro.html
MYD,Malindi Airport,-3.22931003570557,40.1016998291016,http://www.kenyaairports.co.ke/kaa/airports/malindi/
MBA,Mombasa Moi International Airport,-4.03483009338379,39.5942001342773,http://www.kenyaairports.co.ke/kaa/airports/moi/
MRE,Mara Serena Lodge Airstrip,-1.406111,35.008057,
WIL,Nairobi Wilson Airport,-1.32172000408173,36.8148002624512,http://www.kenyaairports.co.ke/kaa/airports/wilson/
NYK,Nanyuki Airport,-0.06239889934659,37.0410079956055,
WJR,Wajir Airport,1.73324000835419,40.0915985107422,http://www.kenyaairports.co.ke/kaa/airports/wajir/
HLA,Lanseria,0,0,
SRX,Gardabya Airport,31.0634994507,16.5949993134,
GHT,Ghat Airport,25.1455993652,10.1426000595,
AKF,Kufra Airport,24.1786994934082,23.3139991760254,
BEN,Benina International Airport,32.0968017578,20.2695007324,
MJI,Mitiga Airport,32.894100189209,13.2760000228882,
LAQ,La Abraq Airport,32.7887001037598,21.9643001556396,
SEB,Sabha Airport,26.9869995117187,14.4724998474121,
TIP,Tripoli International Airport,32.6635017395,13.1590003967,
LTD,Ghadames East Airport,30.1516990661621,9.71531009674072,
KGL,Kigali International Airport,-1.96862995625,30.1394996643,
KME,Kamembe Airport,-2.46223998069763,28.9078998565674,
DOG,Dongola Airport,19.1539001465,30.4300994873,
ELF,El Fasher Airport,13.6148996353149,25.3246002197266,
KSL,Kassala Airport,15.3874998092651,36.328800201416,
EBD,El Obeid Airport,13.1532001495361,30.2327003479004,
PZU,Port Sudan New International Airport,19.4335994720459,37.2341003417969,
JUB,Juba International Airport,4.87201023102,31.6011009216,
MAK,Malakal Airport,9.55897045135498,31.6522006988525,
KRT,Khartoum International Airport,15.5895004272461,32.5531997680664,
WUU,Wau Airport,7.72583007812,27.9750003815,
ARK,Arusha Airport,-3.36778998374939,36.63330078125,
DAR,Julius Nyerere International Airport,-6.87811,39.202599,http://www.tanzaniairports.com/
MBI,Songwe Airport,-8.919942,33.273981,
JRO,Kilimanjaro International Airport,-3.42940998077,37.0745010376,http://www.kilimanjaroairport.co.tz/
MYW,Mtwara Airport,-10.3390998840332,40.1818008422852,
MWZ,Mwanza Airport,-2.4444899559021,32.9327011108398,
TGT,Tanga Airport,-5.09236001968384,39.0712013244629,
ZNZ,Abeid Amani Karume International Airport,-6.22202014923,39.224899292,
RUA,Arua Airport,3.04999995231628,30.9169998168945,
EBB,Entebbe International Airport,0.042385999113321,32.4435005187988,http://www.caa.co.ug/
ULU,Gulu Airport,2.80556011199951,32.271800994873,
SRT,Soroti Airport,1.72768998146057,33.6227989196777,
UGU,Bilogai-Sugapa Airport,-3.73956,137.031998,
ISG,New Ishigaki Airport,24.396389,124.245,
JIQ,Qianjiang Wulingshan Airport,29.5133333333,108.831111111,
JJD,Jericoacoara Airport,-2.905482,-40.355418,
ABE,Lehigh Valley International Airport,40.652099609375,-75.440803527832,
ABI,Abilene Regional Airport,32.4113006592,-99.6819000244,
ABQ,Albuquerque International Sunport Airport,35.040199,-106.609001,http://www.abqsunport.com/
ABR,Aberdeen Regional Airport,45.4491004943848,-98.4217987060547,
ABY,Southwest Georgia Regional Airport,31.5354995727539,-84.1945037841797,
ACK,Nantucket Memorial Airport,41.25310135,-70.06020355,
ACT,Waco Regional Airport,31.6112995147705,-97.2304992675781,
ACV,California Redwood Coast-Humboldt County Airport,40.978101,-124.109,
ACY,Atlantic City International Airport,39.4575996398926,-74.5772018432617,
AEX,Alexandria International Airport,31.3274002075195,-92.5497970581055,
AGS,Augusta Regional At Bush Field,33.3698997497559,-81.9645004272461,
AHN,Athens Ben Epps Airport,33.948600769043,-83.326301574707,
ALB,Albany International Airport,42.7482986450195,-73.8016967773438,http://www.albanyairport.com/
ALO,Waterloo Regional Airport,42.5570983886719,-92.4002990722656,
ALS,San Luis Valley Regional Bergman Field,37.434898,-105.866997,
ALW,Walla Walla Regional Airport,46.09489822,-118.288002,
AMA,Rick Husband Amarillo International Airport,35.219398,-101.706001,http://airport.amarillo.gov/
AOO,Altoona Blair County Airport,40.29639816,-78.31999969,
APN,Alpena County Regional Airport,45.0780983,-83.56030273,
ART,Watertown International Airport,43.9919013977051,-76.0216979980469,
ASE,Aspen-Pitkin Co/Sardy Field,39.22320175,-106.8690033,http://aspenairport.com/
ATL,Hartsfield Jackson Atlanta International Airport,33.6366996765137,-84.4281005859375,http://www.atlanta-airport.com/
ATY,Watertown Regional Airport,44.91400146,-97.15470123,
AUG,Augusta State Airport,44.3205986023,-69.7973022461,
AUS,Austin Bergstrom International Airport,30.1944999694824,-97.6698989868164,http://www.ci.austin.tx.us/austinairport/
AVL,Asheville Regional Airport,35.4361991882324,-82.5418014526367,
AVP,Wilkes Barre Scranton International Airport,41.3385009766,-75.7233963013,http://www.flyavp.com/
AZO,Kalamazoo Battle Creek International Airport,42.2349014282227,-85.5521011352539,
BDL,Bradley International Airport,41.9388999939,-72.6831970215,http://www.bradleyairport.com/
BDR,Igor I Sikorsky Memorial Airport,41.163501739502,-73.1261978149414,
BFD,Bradford Regional Airport,41.8031005859375,-78.6400985717773,
BFF,Western Neb. Rgnl/William B. Heilig Airport,41.87400055,-103.5960007,
BFI,Boeing Field King County International Airport,47.5299987792969,-122.302001953125,
BGM,Greater Binghamton/Edwin A Link field,42.20869827,-75.97979736,http://binghamtonairport.com/
BGR,Bangor International Airport,44.8073997497559,-68.8281021118164,
BHB,Hancock County-Bar Harbor Airport,44.45000076,-68.3615036,
BHM,Birmingham-Shuttlesworth International Airport,33.56290054,-86.75350189,http://www.flybirmingham.com/
BIL,Billings Logan International Airport,45.8077011108398,-108.542999267578,
BIS,Bismarck Municipal Airport,46.7727012634277,-100.746002197266,http://bismarckairport.com/
BKW,Raleigh County Memorial Airport,37.7873001099,-81.1241989136,
BLF,Mercer County Airport,37.2957992553711,-81.2077026367188,
BLI,Bellingham International Airport,48.7928009033203,-122.53800201416,
BLV,Scott AFB/Midamerica Airport,38.5452,-89.835197,
BMI,Central Illinois Regional Airport at Bloomington-Normal,40.47710037,-88.91590118,
BNA,Nashville International Airport,36.1245002746582,-86.6781997680664,
BOI,Boise Air Terminal/Gowen field,43.56439972,-116.2229996,http://www.cityofboise.org/departments/airport/
BOS,General Edward Lawrence Logan International Airport,42.36429977,-71.00520325,http://www.massport.com/logan/
BPT,Southeast Texas Regional Airport,29.9507999420166,-94.0206985473633,
BQK,Brunswick Golden Isles Airport,31.2588005065918,-81.4664993286133,
BRD,Brainerd Lakes Regional Airport,46.39830017,-94.13809967,http://brainerdairport.com/
BRL,Southeast Iowa Regional Airport,40.7831993103027,-91.1255035400391,
BRO,Brownsville South Padre Island International Airport,25.9067993164062,-97.4259033203125,
BTM,Bert Mooney Airport,45.9547996520996,-112.497001647949,
BTR,"Baton Rouge Metropolitan, Ryan Field",30.53319931,-91.14959717,
BTV,Burlington International Airport,44.4719009399,-73.1532974243,http://www.vermontairports.com/btv.html
BUF,Buffalo Niagara International Airport,42.94049835,-78.73220062,
BUR,Bob Hope Airport,34.2006988525391,-118.359001159668,
BWI,Baltimore/Washington International Thurgood Marshall Airport,39.17539978,-76.66829681,
BZN,Gallatin Field,45.77750015,-111.1529999,
CAE,Columbia Metropolitan Airport,33.9388008117676,-81.119499206543,
CAK,Akron Canton Regional Airport,40.9160995483398,-81.4421997070312,
CDC,Cedar City Regional Airport,37.701000213623,-113.098999023438,
CEC,Jack Mc Namara Field Airport,41.78020096,-124.2369995,
CGI,Cape Girardeau Regional Airport,37.2252998352051,-89.57080078125,
CHA,Lovell Field,35.0353012084961,-85.2037963867187,
CHO,Charlottesville Albemarle Airport,38.138599395752,-78.4529037475586,
CHS,Charleston Air Force Base-International Airport,32.89860153,-80.04049683,
CID,The Eastern Iowa Airport,41.8847007751465,-91.7108001708984,
CIU,Chippewa County International Airport,46.2508010864258,-84.4723968505859,
CKB,North Central West Virginia Airport,39.2966003418,-80.2281036377,
CLE,Cleveland Hopkins International Airport,41.4117012024,-81.8498001099,http://www.clevelandairport.com/
CLL,Easterwood Field,30.58860016,-96.36380005,
CLM,William R Fairchild International Airport,48.1202011108398,-123.5,
CLT,Charlotte Douglas International Airport,35.2140007019043,-80.9430999755859,http://www.charlotteairport.com/
CMH,John Glenn Columbus International Airport,39.998001,-82.891899,https://flycolumbus.com/
CMI,University of Illinois Willard Airport,40.03919983,-88.27809906,
CMX,Houghton County Memorial Airport,47.168399810791,-88.4890975952149,
CNM,Cavern City Air Terminal,32.3375015258789,-104.263000488281,
COS,City of Colorado Springs Municipal Airport,38.805801391602,-104.70099639893,https://flycos.coloradosprings.gov/
COU,Columbia Regional Airport,38.8180999755859,-92.219596862793,
CPR,Casper-Natrona County International Airport,42.90800095,-106.4639969,
CRP,Corpus Christi International Airport,27.7703990936279,-97.5011978149414,
CRW,Yeager Airport,38.3731002807617,-81.5932006835937,
CSG,Columbus Metropolitan Airport,32.516300201416,-84.9389038085937,
CVG,Cincinnati Northern Kentucky International Airport,39.0488014221,-84.6678009033,
CYS,Cheyenne Regional Jerry Olson Field,41.15570068,-104.8119965,
DAB,Daytona Beach International Airport,29.179899,-81.058098,
DAL,Dallas Love Field,32.847099,-96.851799,http://www.dallas-lovefield.com/
DAY,James M Cox Dayton International Airport,39.902400970459,-84.2193984985352,
DBQ,Dubuque Regional Airport,42.40200043,-90.70950317,
DCA,Ronald Reagan Washington National Airport,38.8521,-77.037697,http://www.flyreagan.com/dca/reagan-national-airport
DDC,Dodge City Regional Airport,37.7634010314941,-99.9655990600586,
DEC,Decatur Airport,39.8345985412598,-88.8656997680664,
DEN,Denver International Airport,39.861698150635,-104.672996521,http://www.flydenver.com/
DFW,Dallas Fort Worth International Airport,32.896800994873,-97.0380020141602,http://www.dfwairport.com/
DHN,Dothan Regional Airport,31.3213005065918,-85.4496002197266,
DLH,Duluth International Airport,46.8420982361,-92.1936035156,http://www.duluthairport.com/
DSM,Des Moines International Airport,41.5340003967285,-93.6631011962891,
DTW,Detroit Metropolitan Wayne County Airport,42.2123985290527,-83.353401184082,http://www.metroairport.com/
DUJ,DuBois Regional Airport,41.17829895,-78.8986969,
EAU,Chippewa Valley Regional Airport,44.8657989501953,-91.4842987060547,
ECP,Northwest Florida Beaches International Airport,30.357106,-85.795414,http://iflybeaches.com
EGE,Eagle County Regional Airport,39.64260101,-106.9179993,http://www.eaglecounty.us/airport/
EKO,Elko Regional Airport,40.8249015808106,-115.791999816895,
ELD,South Arkansas Regional At Goodwin Field,33.2210006713867,-92.8133010864258,
ELM,Elmira Corning Regional Airport,42.1599006652832,-76.8916015625,
ELP,El Paso International Airport,31.80719948,-106.3779984,
ERI,Erie International Tom Ridge Field,42.0831270134,-80.1738667488,
EUG,Mahlon Sweet Field,44.1245994567871,-123.21199798584,
EVV,Evansville Regional Airport,38.0369987488,-87.5324020386,
EWB,New Bedford Regional Airport,41.6761016845703,-70.956901550293,
EWN,Coastal Carolina Regional Airport,35.0730018616,-77.0429000854,
EWR,Newark Liberty International Airport,40.6925010681152,-74.168701171875,http://www.panynj.gov/CommutingTravel/airports/html/newarkliberty.html
EYW,Key West International Airport,24.5561008453369,-81.7595977783203,
FAR,Hector International Airport,46.9207000732422,-96.815803527832,http://www.fargoairport.com/
FAT,Fresno Yosemite International Airport,36.7761993408203,-119.718002319336,
FAY,Fayetteville Regional Grannis Field,34.9911994934082,-78.8803024291992,
FHU,Sierra Vista Municipal Libby Army Air Field,31.5884990692139,-110.34400177002,
FLG,Flagstaff Pulliam Airport,35.13850021,-111.6709976,
FLL,Fort Lauderdale Hollywood International Airport,26.0725994110107,-80.152702331543,http://www.fll.net/
FLO,Florence Regional Airport,34.1853981018066,-79.7238998413086,
FNT,Bishop International Airport,42.9654006958008,-83.7435989379883,
FOD,Fort Dodge Regional Airport,42.55149841,-94.19259644,
FSD,Joe Foss Field Airport,43.5820007324,-96.741897583,http://www.sfairport.com/
FSM,Fort Smith Regional Airport,35.3366012573242,-94.3674011230469,
FWA,Fort Wayne International Airport,40.97850037,-85.19509888,https://fwairport.com/
GCC,Gillette Campbell County Airport,44.3488998413,-105.539001465,http://www.iflygillette.com/
GCK,Garden City Regional Airport,37.9275016785,-100.723999023,
GCN,Grand Canyon National Park Airport,35.9524002075195,-112.147003173828,http://www.azdot.gov/aviation/airports/airports_list.asp?FAA=GCN
GEG,Spokane International Airport,47.6198997497559,-117.533996582031,
GFK,Grand Forks International Airport,47.949299,-97.176102,http://www.gfkairport.com/
GGG,East Texas Regional Airport,32.3839988708496,-94.7115020751953,
GGW,Wokal Field Glasgow International Airport,48.212502,-106.614998,http://www.glasgowmtairport.com/
GJT,Grand Junction Regional Airport,39.1223983765,-108.527000427,http://www.gjairport.com/
GLH,Mid Delta Regional Airport,33.4828987121582,-90.9856033325195,
GNV,Gainesville Regional Airport,29.6900997162,-82.2717971802,
FCA,Glacier Park International Airport,48.3105010986328,-114.255996704102,http://www.iflyglacier.com/
GPT,Gulfport Biloxi International Airport,30.4073009490967,-89.0700988769531,
GRB,Austin Straubel International Airport,44.4850997924805,-88.1296005249024,
GRI,Central Nebraska Regional Airport,40.9674987792969,-98.3096008300781,
GRK,Robert Gray  Army Air Field Airport,31.067199707,-97.8289031982,
GRR,Gerald R. Ford International Airport,42.88079834,-85.52279663,
GSO,Piedmont Triad International Airport,36.0978012084961,-79.9373016357422,
GSP,Greenville Spartanburg International Airport,34.8956985474,-82.2189025879,
GTF,Great Falls International Airport,47.48199844,-111.3710022,
GTR,Golden Triangle Regional Airport,33.4502983093,-88.5914001465,
HIB,Range Regional Airport,47.38660049,-92.83899689,
HLN,Helena Regional Airport,46.6068000793457,-111.983001708984,
HON,Huron Regional Airport,44.3852005004883,-98.2285003662109,
HOT,Memorial Field,34.4780006408691,-93.0961990356445,
HOU,William P Hobby Airport,29.64539909,-95.27890015,http://www.fly2houston.com/hobbyHome
HPN,Westchester County Airport,41.0670013427734,-73.7076034545899,
HRL,Valley International Airport,26.2285003662109,-97.6544036865234,
HRO,Boone County Airport,36.2615013122559,-93.1547012329102,
HSV,Huntsville International Carl T Jones Field,34.637199401855,-86.775100708008,http://www.flyhuntsville.com/portal/#.VbaG-_lVhBc
HTS,Tri-State/Milton J. Ferguson Field,38.36669922,-82.55799866,
HVN,Tweed New Haven Airport,41.26369858,-72.88680267,
HYA,Barnstable Municipal Boardman Polando Field,41.66930008,-70.28040314,
IAD,Washington Dulles International Airport,38.94449997,-77.45580292,http://www.mwaa.com/dulles/
IAH,George Bush Intercontinental Houston Airport,29.9843997955322,-95.3414001464844,http://www.fly2houston.com/iah
ICT,Wichita Mid Continent Airport,37.6498985290527,-97.4330978393555,
IDA,Idaho Falls Regional Airport,43.514599,-112.070999,
ILG,New Castle Airport,39.67869949,-75.60649872,
ILM,Wilmington International Airport,34.2705993652344,-77.9026031494141,
IND,Indianapolis International Airport,39.7173,-86.294403,http://www.indianapolisairport.com/
INL,Falls International Airport,48.5662002563477,-93.4030990600586,
IPT,Williamsport Regional Airport,41.2417984008789,-76.9210968017578,
IRK,Kirksville Regional Airport,40.0934982299805,-92.5448989868164,
ISP,Long Island Mac Arthur Airport,40.79520035,-73.10019684,
ITH,Ithaca Tompkins Regional Airport,42.4910011291504,-76.4583969116211,
JAC,Jackson Hole Airport,43.6072998046875,-110.737998962402,
JAN,Jackson-Medgar Wiley Evers International Airport,32.3111991882,-90.0758972168,
JAX,Jacksonville International Airport,30.4941005706787,-81.6878967285156,
JBR,Jonesboro Municipal Airport,35.8316993713379,-90.6464004516602,
JFK,John F Kennedy International Airport,40.63980103,-73.77890015,http://www.panynj.gov/CommutingTravel/airports/html/kennedy.html
JLN,Joplin Regional Airport,37.151798248291,-94.4982986450195,
JMS,Jamestown Regional Airport,46.92969894,-98.67819977,
JST,John Murtha Johnstown Cambria County Airport,40.3161010742187,-78.8339004516602,
LAN,Capital City Airport,42.7787017822266,-84.58740234375,
LAR,Laramie Regional Airport,41.3120994567871,-105.675003051758,
LAS,McCarran International Airport,36.08010101,-115.1520004,http://www.mccarran.com/
LAX,Los Angeles International Airport,33.94250107,-118.4079971,http://www.iflylax.com/
LBB,Lubbock Preston Smith International Airport,33.663601,-101.822998,http://www.flylia.com/
LBE,Arnold Palmer Regional Airport,40.27590179,-79.40480042,
LBF,North Platte Regional Airport Lee Bird Field,41.12620163,-100.6839981,
LBL,Liberal Mid-America Regional Airport,37.0442009,-100.9599991,
LCH,Lake Charles Regional Airport,30.1261005401611,-93.2232971191406,
LCK,Rickenbacker International Airport,39.813801,-82.927803,http://rickenbackerinlandport.com/en/rickenbacker-international-airport/
LEB,Lebanon Municipal Airport,43.6260986328,-72.3041992188,http://flyleb.com/
LEX,Blue Grass Airport,38.0364990234375,-84.6059036254883,http://www.bluegrassairport.com/
LFT,Lafayette Regional Airport,30.20529938,-91.98760223,http://www.lftairport.com/Home
LGA,La Guardia Airport,40.77719879,-73.87259674,http://www.panynj.gov/CommutingTravel/airports/html/laguardia.html
LGB,Long Beach /Daugherty Field/ Airport,33.81769943,-118.1520004,http://www.lgb.org/
LIT,Bill & Hillary Clinton National Airport/Adams Field,34.7294006348,-92.2242965698,
LMT,Crater Lake-Klamath Regional Airport,42.156101,-121.733002,
LNK,Lincoln Airport,40.851001739502,-96.7592010498047,http://www.lincolnairport.com/
LNS,Lancaster Airport,40.1217002868652,-76.2960968017578,
LRD,Laredo International Airport,27.5438003540039,-99.4616012573242,
LSE,La Crosse Municipal Airport,43.879002,-91.256699,http://www.lseairport.com/
LWS,Lewiston Nez Perce County Airport,46.3745002746582,-117.014999389648,
LWT,Lewistown Municipal Airport,47.0493011474609,-109.467002868652,
LYH,Lynchburg Regional Preston Glenn Field,37.3266983032227,-79.2004013061523,
MAF,Midland International Airport,31.9424991607666,-102.202003479004,
MBS,MBS International Airport,43.532901763916,-84.0795974731445,http://www.mbsairport.org/
MCI,Kansas City International Airport,39.2976,-94.713898,http://www.flykci.com/
MCN,Middle Georgia Regional Airport,32.692798614502,-83.6492004394531,
MCO,Orlando International Airport,28.4293994903564,-81.3089981079102,http://www.orlandoairports.net/
MDT,Harrisburg International Airport,40.1935005188,-76.7633972168,http://www.flyhia.com/
MDW,Chicago Midway International Airport,41.7859992980957,-87.7524032592774,http://www.flychicago.com/midway/MidwayHomepage.shtm
MEI,Key Field,32.3325996398926,-88.7518997192383,
MEM,Memphis International Airport,35.0424003601074,-89.9766998291016,
MFE,Mc Allen Miller International Airport,26.17580032,-98.23860168,
MFR,Rogue Valley International Medford Airport,42.3741989135742,-122.873001098633,
MGM,Montgomery Regional (Dannelly Field) Airport,32.30059814,-86.39399719,http://www.flymgm.com/
MGW,Morgantown Municipal Walter L. Bill Hart Field,39.64289856,-79.91629791,
MHK,Manhattan Regional Airport,39.140998840332,-96.6707992553711,
MHT,Manchester Airport,42.9325981140137,-71.4356994628906,
MIA,Miami International Airport,25.7931995391846,-80.2906036376953,http://www.miami-airport.com/
MKE,General Mitchell International Airport,42.9472007751465,-87.896598815918,
MKL,Mc Kellar Sipes Regional Airport,35.59989929,-88.91560364,
MLB,Melbourne International Airport,28.1028003692627,-80.6453018188477,
MLI,Quad City International Airport,41.4485015869141,-90.5074996948242,
MLS,Frank Wiley Field,46.4280014038086,-105.886001586914,
MLU,Monroe Regional Airport,32.5108985900879,-92.0376968383789,
MOB,Mobile Regional Airport,30.691200256348,-88.242797851562,http://www.mobairport.com/
MOD,Modesto City Co-Harry Sham Field,37.62580109,-120.9540024,
MOT,Minot International Airport,48.2593994140625,-101.279998779297,
MRY,Monterey Peninsula Airport,36.5870018005371,-121.843002319336,
MSL,Northwest Alabama Regional Airport,34.74530029,-87.61019897,
MSN,Dane County Regional Truax Field,43.1399002075195,-89.3375015258789,
MSO,Missoula International Airport,46.91630173,-114.0910034,
MSP,Minneapolis-St Paul International/Wold-Chamberlain Airport,44.8819999695,-93.2218017578,http://www.mspairport.com/
MSS,Massena International Richards Field,44.9357986450195,-74.8455963134766,http://www.massenaworks.com/town/airport.asp
MSY,Louis Armstrong New Orleans International Airport,29.9934005737305,-90.2580032348633,
MYR,Myrtle Beach International Airport,33.6796989441,-78.9282989502,
YUM,Yuma MCAS/Yuma International Airport,32.65660095,-114.6060028,
OAK,Metropolitan Oakland International Airport,37.721298,-122.221001,http://www.oaklandairport.com/
OGD,Ogden Hinckley Airport,41.195899963379,-112.0120010376,http://flyogden.com/
OKC,Will Rogers World Airport,35.3931007385254,-97.600700378418,
OMA,Eppley Airfield,41.3031997680664,-95.8940963745117,
ONT,Ontario International Airport,34.0559997558594,-117.600997924805,
ORD,Chicago O'Hare International Airport,41.97859955,-87.90480042,http://www.flychicago.com/ohare/en/home/Pages/default.aspx
ORF,Norfolk International Airport,36.8945999145508,-76.2012023925781,
OTH,Southwest Oregon Regional Airport,43.4170989990234,-124.246002197266,
OWB,Owensboro Daviess County Airport,37.74010086,-87.16680145,
RGO,Orang Airport,41.428538,129.647555,
PAH,Barkley Regional Airport,37.0607986450195,-88.7738037109375,
PBG,Plattsburgh International Airport,44.6509017944336,-73.4681015014648,http://www.plattsburghinternationalairport.com/
PBI,Palm Beach International Airport,26.6832008361816,-80.0955963134766,
PDX,Portland International Airport,45.58869934,-122.5979996,
PHF,Newport News Williamsburg International Airport,37.13190079,-76.49299622,
PHL,Philadelphia International Airport,39.871898651123,-75.241096496582,http://www.phl.org/
PHX,Phoenix Sky Harbor International Airport,33.4342994689941,-112.012001037598,http://phoenix.gov/skyharborairport/
PIA,General Wayne A. Downing Peoria International Airport,40.6641998291,-89.6932983398,
PIB,Hattiesburg Laurel Regional Airport,31.4671001434326,-89.3370971679687,
PIE,St Petersburg Clearwater International Airport,27.91020012,-82.68740082,
PIH,Pocatello Regional Airport,42.9098014831543,-112.596000671387,
PIR,Pierre Regional Airport,44.38270187,-100.2860031,
PIT,Pittsburgh International Airport,40.49150085,-80.23290253,
PKB,Mid Ohio Valley Regional Airport,39.345100402832,-81.4392013549805,
PLN,Pellston Regional Airport of Emmet County Airport,45.57089996,-84.79669952,
PMD,Palmdale Regional/USAF Plant 42 Airport,34.62939835,-118.0849991,
PNE,Northeast Philadelphia Airport,40.081902,-75.010597,http://www.phl.org/pne/pne.html
PNS,Pensacola Regional Airport,30.473400115967,-87.186599731445,http://www.flypensacola.com/
PQI,Northern Maine Regional Airport at Presque Isle,46.68899918,-68.0447998,
PRC,Ernest A. Love Field,34.65449905,-112.4199982,
PSC,Tri Cities Airport,46.2647018432617,-119.119003295898,
PSM,Portsmouth International at Pease Airport,43.0778999329,-70.8233032227,
PSP,Palm Springs International Airport,33.8297004699707,-116.50700378418,http://www.palmspringsca.gov/index.aspx?page=270
PUW,Pullman Moscow Regional Airport,46.7439,-117.110001,http://www.pullman-wa.gov/airport/
PVD,Theodore Francis Green State Airport,41.7326011657715,-71.4204025268555,
PVU,Provo Municipal Airport,40.219200134277,-111.72299957275,http://www.provo.org/city-services/airport
PWM,Portland International Jetport Airport,43.64619827,-70.30930328,
RAP,Rapid City Regional Airport,44.0452995300293,-103.056999206543,
RDD,Redding Municipal Airport,40.50899887,-122.2929993,
RDG,Reading Regional Carl A Spaatz Field,40.3785018920898,-75.965202331543,
RDM,Roberts Field,44.2541008,-121.1500015,
RDU,Raleigh Durham International Airport,35.8776016235352,-78.7874984741211,
RFD,Chicago Rockford International Airport,42.1954002380371,-89.0971984863281,
RHI,Rhinelander Oneida County Airport,45.6311988830566,-89.4674987792969,
RIC,Richmond International Airport,37.505199432373,-77.3197021484375,
RKS,Rock Springs Sweetwater County Airport,41.59420013,-109.0650024,
RNO,Reno Tahoe International Airport,39.4990997314453,-119.767997741699,
ROA,Roanoke–Blacksburg Regional Airport,37.3255,-79.975403,http://www.roanokeairport.com/
ROC,Greater Rochester International Airport,43.1189002990723,-77.6724014282227,
ROW,Roswell International Air Center Airport,33.3016014099121,-104.53099822998,
RST,Rochester International Airport,43.9082984924316,-92.5,
RSW,Southwest Florida International Airport,26.5361995697021,-81.7552032470703,http://www.flylcpa.com/
RUT,Rutland - Southern Vermont Regional Airport,43.52939987,-72.94960022,
SAN,San Diego International Airport,32.7336006165,-117.190002441,http://www.san.org/
SAT,San Antonio International Airport,29.5337009429932,-98.4698028564453,
SAV,Savannah Hilton Head International Airport,32.12760162,-81.20210266,
SBA,Santa Barbara Municipal Airport,34.42620087,-119.8399963,
SBN,South Bend Regional Airport,41.7086982727051,-86.3172988891602,
SBP,San Luis County Regional Airport,35.2368011475,-120.641998291,http://www.sloairport.com/
SBY,Salisbury Ocean City Wicomico Regional Airport,38.3404998779297,-75.5102996826172,
SDF,Louisville International Standiford Field,38.1744,-85.736,http://www.flylouisville.com
SEA,Seattle Tacoma International Airport,47.4490013122559,-122.30899810791,http://www.portseattle.org/seatac/
SFB,Orlando Sanford International Airport,28.7775993347168,-81.2375030517578,
SFO,San Francisco International Airport,37.6189994812012,-122.375,http://www.flysfo.com/
SGF,Springfield Branson National Airport,37.24570084,-93.38860321,
UST,Northeast Florida Regional Airport,29.9592,-81.339798,http://www.flynf.com/
SGU,St George Municipal Airport,37.036389,-113.510306,http://www.sgcity.org/departments/publicworks/airport/
SHR,Sheridan County Airport,44.7691993713379,-106.980003356934,
SHV,Shreveport Regional Airport,32.4466018676758,-93.8255996704102,
SJC,Norman Y. Mineta San Jose International Airport,37.362598,-121.929001,http://www.flysanjose.com/
SJT,San Angelo Regional Mathis Field,31.3577003479004,-100.496002197266,
SLC,Salt Lake City International Airport,40.7883987426758,-111.977996826172,
SLK,Adirondack Regional Airport,44.3852996826172,-74.2061996459961,
SLN,Salina Municipal Airport,38.7910003662109,-97.6521987915039,
SMF,Sacramento International Airport,38.6954002380371,-121.591003417969,
SMX,Santa Maria Pub/Capt G Allan Hancock Field,34.89889908,-120.4570007,
SNA,John Wayne Airport-Orange County Airport,33.67570114,-117.8679962,http://www.ocair.com/
SPI,Abraham Lincoln Capital Airport,39.84410095,-89.67790222,
SPS,Sheppard Air Force Base-Wichita Falls Municipal Airport,33.9888,-98.491898,http://www.flywichitafalls.net/
SRQ,Sarasota Bradenton International Airport,27.3953990936279,-82.5543975830078,
STC,St Cloud Regional Airport,45.5466003417969,-94.0598983764648,
STL,St Louis Lambert International Airport,38.748697,-90.370003,http://www.lambert-stlouis.com/
STS,Charles M. Schulz Sonoma County Airport,38.50899887,-122.8130035,http://www.sonomacountyairport.org/
SUN,Friedman Memorial Airport,43.50439835,-114.2959976,
SUX,Sioux Gateway Col. Bud Day Field,42.40259933,-96.38439941,
SWF,Stewart International Airport,41.5041007995606,-74.1047973632813,
SYR,Syracuse Hancock International Airport,43.111198425293,-76.1063003540039,http://www.syrairport.org/
TBN,Waynesville-St. Robert Regional Forney field,37.74160004,-92.14070129,
TLH,Tallahassee Regional Airport,30.3964996337891,-84.3503036499024,
TOL,Toledo Express Airport,41.58679962,-83.80780029,
TPA,Tampa International Airport,27.9755001068115,-82.533203125,
TRI,Tri-Cities Regional TN/VA Airport,36.475201,-82.407401,
TTN,Trenton Mercer Airport,40.2766990661621,-74.8134994506836,
TUL,Tulsa International Airport,36.1983985900879,-95.8880996704102,
TUP,Tupelo Regional Airport,34.2681007385254,-88.7698974609375,
TUS,Tucson International Airport,32.1161003112793,-110.94100189209,
TVC,Cherry Capital Airport,44.7414016723633,-85.5821990966797,
TWF,Joslin Field Magic Valley Regional Airport,42.4818,-114.487999,
TXK,Texarkana Regional Webb Field,33.4537010192871,-93.9909973144531,
TYR,Tyler Pounds Regional Airport,32.3540992736816,-95.4023971557617,
TYS,McGhee Tyson Airport,35.81100082,-83.9940033,
UIN,Quincy Regional Baldwin Field,39.94269943,-91.19460297,
SCE,University Park Airport,40.8493003845,-77.8487014771,http://universityparkairport.com/
VCT,Victoria Regional Airport,28.8526000976562,-96.9185028076172,
VLD,Valdosta Regional Airport,30.7824993133545,-83.2767028808594,
VPS,Destin-Ft Walton Beach Airport,30.4832,-86.525398,http://www.flyvps.com/
WRL,Worland Municipal Airport,43.9656982421875,-107.950996398926,
KWY,Kiwayu Airport,-1.96055996417999,41.2975006103516,
XNA,Northwest Arkansas Regional Airport,36.281898,-94.306801,http://www.flyxna.com/
YKM,Yakima Air Terminal McAllister Field,46.56819916,-120.5439987,
TIA,Tirana International Airport Mother Teresa,41.4146995544,19.7206001282,http://www.tirana-airport.com/
BOJ,Burgas Airport,42.5695991516113,27.5151996612549,
PDV,Plovdiv International Airport,42.067799,24.8508,http://www.plovdivairport.com/
SOF,Sofia Airport,42.6966934204102,23.4114360809326,http://sofia-airport.bg
VAR,Varna Airport,43.232101,27.8251,
ECN,Ercan International Airport,35.1547012329102,33.4961013793945,
LCA,Larnaca International Airport,34.8750991821289,33.6249008178711,http://www.cyprusairports.com.cy/showpage.php?PageID=2
PFO,Paphos International Airport,34.7179985046387,32.4856986999512,http://paphosinternationalairport.com/index_papxmas.html
AKT,RAF Akrotiri,34.590401,32.9879,http://www.raf.mod.uk/rafakrotiri/passengerinformation/
DBV,Dubrovnik Airport,42.5614013671875,18.2681999206543,
PUY,Pula Airport,44.8935012817383,13.9222002029419,
RJK,Rijeka Airport,45.2168998718262,14.5703001022339,
BWK,Bol Airport,43.285701751709,16.6797008514404,
SPU,Split Airport,43.5388984680176,16.2980003356934,
ZAG,Zagreb Airport,45.7429008484,16.0687999725,
ZAD,Zemunik Airport,44.1082992553711,15.3466997146606,
ABC,Albacete-Los Llanos Airport,38.9485015869,-1.86352002621,http://www.aena.es/csee/Satellite?cid=1046767815090&pagename=subHome&Language=EN_GB&SiteName=LEAB&c=Page
ALC,Alicante International Airport,38.2821998596191,-0.55815601348877,http://www.aena.es/csee/Satellite?cid=1049437849176&pagename=subHome&Language=EN_GB&SiteName=ALC&c=Page
LEI,Almería International Airport,36.8438987731934,-2.3701000213623,http://www.aena.es/csee/Satellite?cid=1048146844127&pagename=subHome&Language=EN_GB&SiteName=LEI&c=Page
OVD,Asturias Airport,43.5635986328125,-6.03461980819702,http://www.aena.es/csee/Satellite?cid=1047658435997&pagename=subHome&Language=EN_GB&SiteName=OVD&c=Page
BIO,Bilbao Airport,43.3011016845703,-2.91060996055603,http://www.aena.es/csee/Satellite?cid=1047658432525&pagename=subHome&Language=EN_GB&SiteName=BIO&c=Page
BCN,Barcelona International Airport,41.297100067139,2.0784599781036,http://www.aena.es/csee/Satellite?cid=1045569607459&pagename=subHome&Language=EN_GB&SiteName=BCN&c=Page
BJZ,Badajoz Airport,38.891300201416,-6.82133007049561,http://www.aena.es/csee/Satellite?cid=1047546622728&pagename=subHome&Language=EN_GB&SiteName=BJZ&c=Page
LCG,A Coruña Airport,43.302101,-8.37726,http://www.aena.es/csee/Satellite?cid=1048146841342&pagename=subHome&SiteName=LCG&c=Page&Language=EN_GB
ILD,Lleida-Alguaire Airport,41.728185,0.535023,http://www.aeroportlleida.cat/?L=2
CDT,Castellón-Costa Azahar Airport,40.213889,0.073333,
GRO,Girona Airport,41.901000977,2.7605500221,
GRX,Federico Garcia Lorca Airport,37.1887016296387,-3.77735996246338,
IBZ,Ibiza Airport,38.8728981018,1.37311995029,
XRY,Jerez Airport,36.7445983886719,-6.06011009216309,
MJV,San Javier Airport,37.7750015258789,-0.812389016151428,
MAD,Adolfo Suárez Madrid–Barajas Airport,40.471926,-3.56264,http://www.aena.es/csee/Satellite?cid=1049727006353&pagename=subHome&SiteName=MAD&c=Page&Language=EN_GB
AGP,Málaga Airport,36.6749000549316,-4.49911022186279,
MAH,Menorca Airport,39.8625984191895,4.21864986419678,
PMI,Palma De Mallorca Airport,39.551700592,2.73881006241,http://www.aena.es/csee/Satellite?cid=1046276292735&pagename=subHome&Language=EN_GB&SiteName=PMI&c=Page
PNA,Pamplona Airport,42.7700004577637,-1.64632999897003,
REU,Reus Air Base,41.1473999023437,1.16717004776001,
SLM,Salamanca Airport,40.9520988464355,-5.50198984146118,
EAS,San Sebastian Airport,43.3564987182617,-1.79060995578766,
SCQ,Santiago de Compostela Airport,42.8963012695313,-8.41514015197754,
VLC,Valencia Airport,39.4893,-0.481625,
VLL,Valladolid Airport,41.7061004639,-4.85194015503,
VIT,Vitoria/Foronda Airport,42.8828010559082,-2.72446990013123,
VGO,Vigo Airport,42.2318000793457,-8.62677001953125,
SDR,Santander Airport,43.4271011352539,-3.82000994682312,
ZAZ,Zaragoza Air Base,41.6661987304687,-1.04155004024506,
SVQ,Sevilla Airport,37.4179992675781,-5.8931097984314,
AGF,Agen-La Garenne Airport,44.1747016906738,0.590556025505066,
BOD,Bordeaux-Mérignac Airport,44.8283004761,-0.715556025505,
EGC,Bergerac-Roumanière Airport,44.8252983093262,0.518611013889313,
LRH,La Rochelle-Île de Ré Airport,46.17919921875,-1.19527995586395,
PIS,Poitiers-Biard Airport,46.5876998901367,0.306665986776352,
LIG,Limoges Airport,45.8628005981445,1.17944002151489,
TLS,Toulouse-Blagnac Airport,43.629101,1.36382,http://www.toulouse.aeroport.fr/
PUF,Pau Pyrénées Airport,43.3800010681152,-0.418610990047455,
LDE,Tarbes-Lourdes-Pyrénées Airport,43.1786994934082,-0.006438999902457,
ANG,Angoulême-Brie-Champniers Airport,45.7291984558106,0.221456006169319,
BIQ,Biarritz-Anglet-Bayonne Airport,43.4683333,-1.5311111,
DCM,Castres-Mazamet Airport,43.5563011169434,2.2891800403595,
RDZ,Rodez-Marcillac Airport,44.407901763916,2.48267006874084,
IDY,Île d'Yeu Airport,46.7186012268066,-2.39110994338989,
LPY,Le Puy-Loudes Airport,45.0806999206543,3.76289010047913,
ETZ,Metz-Nancy-Lorraine Airport,48.9821014404,6.25131988525,
ANE,Angers-Loire Airport,47.5602989196777,-0.312222003936768,
BIA,Bastia-Poretta Airport,42.5527000427246,9.48373031616211,
CLY,Calvi-Sainte-Catherine Airport,42.5244444,8.7930556,
FSC,Figari Sud-Corse Airport,41.5005989074707,9.09778022766113,
AJA,Ajaccio-Napoléon Bonaparte Airport,41.9235992431641,8.8029203414917,
CMF,Chambéry-Savoie Airport,45.6380996704102,5.88022994995117,
CFE,Clermont-Ferrand Auvergne Airport,45.7867012024,3.1691699028,
LYS,Lyon Saint-Exupéry Airport,45.725556,5.081111,https://www.lyonaeroports.com/
NCY,Annecy-Haute-Savoie-Mont Blanc Airport,45.9308333,6.1063889,
GNB,Grenoble-Isère Airport,45.3628997802734,5.32937002182007,
AUR,Aurillac Airport,44.8913993835449,2.42194008827209,
CEQ,Cannes-Mandelieu Airport,43.5419998168945,6.9534797668457,
EBU,Saint-Étienne-Bouthéon Airport,45.5405998229981,4.29639005661011,
CCF,Carcassonne Airport,43.2159996032715,2.30631995201111,
MRS,Marseille Provence Airport,43.439271922,5.22142410278,
NCE,Nice-Côte d'Azur Airport,43.6584014893,7.21586990356,
PGF,Perpignan-Rivesaltes (Llabanère) Airport,42.7403984069824,2.87067008018494,
MPL,Montpellier-Méditerranée Airport,43.5761985778809,3.96301007270813,
BZR,Béziers-Vias Airport,43.3235015869141,3.35389995574951,
AVN,Avignon-Caumont Airport,43.9072990417481,4.90183019638062,
BVA,Paris Beauvais Tillé Airport,49.4543991088867,2.11278009414673,
LEH,Le Havre Octeville Airport,49.5339012145996,0.088055998086929,
URO,Rouen Airport,49.3842010498047,1.17480003833771,
TUF,Tours-Val-de-Loire Airport,47.4322013855,0.727605998516,http://www.tours.aeroport.fr/index_en.php
CDG,Charles de Gaulle International Airport,49.0127983093,2.54999995232,http://www.aeroportsdeparis.fr/
ORY,Paris-Orly Airport,48.7233333,2.3794444,
POX,Pontoise - Cormeilles-en-Vexin Airport,49.0966667,2.0408333,
LIL,Lille-Lesquin Airport,50.563332,3.086886,
BES,Brest Bretagne Airport,48.4478988647461,-4.41854000091553,
CER,Cherbourg-Maupertus Airport,49.6501007080078,-1.47028005123138,
DNR,Dinard-Pleurtuit-Saint-Malo Airport,48.5876998901367,-2.07996010780334,
LRT,Lorient South Brittany (Bretagne Sud) Airport,47.7606010437012,-3.44000005722046,
CFR,Caen-Carpiquet Airport,49.1733016967774,-0.449999988079071,
RNS,Rennes-Saint-Jacques Airport,48.0694999695,-1.73478996754,http://www.rennes.aeroport.fr/
LAI,Lannion-Côte de Granit Airport,48.7543983459473,-3.47165989875793,
UIP,Quimper-Cornouaille Airport,47.9749984741211,-4.16778993606567,
NTE,Nantes Atlantique Airport,47.1531982422,-1.61073005199,
BSL,EuroAirport Basel-Mulhouse-Freiburg Airport,47.59,7.5291667,http://www.euroairport.com/
DIJ,Dijon-Bourgogne Airport,47.268902,5.09,http://www.aeroport.dijon.cci.fr/
EPL,Épinal-Mirecourt Airport,48.3250007629395,6.06998014450073,
SXB,Strasbourg Airport,48.5382995605469,7.62823009490967,http://www.strasbourg.aeroport.fr/E/index.php
TLN,Toulon-Hyères Airport,43.0973014832,6.14602994919,http://toulon-hyeres.aeroport.fr/
FNI,Nîmes-Arles-Camargue Airport,43.7574005126953,4.4163498878479,
FSP,St Pierre Airport,46.7629013061523,-56.1730995178223,
AXD,Dimokritos Airport,40.855899810791,25.9563007354736,
ATH,Eleftherios Venizelos International Airport,37.9364013672,23.9444999695,http://www.aia.gr
JKH,Chios Island National Airport,38.3432006835937,26.1406002044678,http://www.hcaa-eleng.gr/chios.htm
IOA,Ioannina Airport,39.6963996887207,20.8225002288818,
HER,Heraklion International Nikos Kazantzakis Airport,35.3396987915,25.1802997589,
EFL,Kefallinia Airport,38.1200981140137,20.5004997253418,
KLX,Kalamata Airport,37.0682983398437,22.0254993438721,
KGS,Kos Airport,36.7933006286621,27.0916996002197,
AOK,Karpathos Airport,35.4213981628418,27.1459999084473,
CFU,Ioannis Kapodistrias International Airport,39.6018981933594,19.9116992950439,
KVA,Alexander the Great International Airport,40.9132995605469,24.6191997528076,
KZI,Filippos Airport,40.2860984802246,21.840799331665,
JMK,Mikonos Airport,37.4351005554199,25.3481006622314,
MJT,Mytilene International Airport,39.0567016602,26.5983009338,
PVK,Aktion National Airport,38.9254989624023,20.7653007507324,
RHO,Diagoras Airport,36.4053993225098,28.0862007141113,
GPA,Araxos Airport,38.1511,21.4256,http://www.araxos-airport.gr/
CHQ,Chania International Airport,35.5317001342773,24.1497001647949,
JSI,Skiathos Island National Airport,39.1771011352539,23.5037002563477,
SMI,Samos Airport,37.689998626709,26.9116992950439,
JTR,Santorini Airport,36.3992004394531,25.4792995452881,
JSH,Sitia Airport,35.2160987854004,26.1012992858887,
SKG,Thessaloniki Macedonia International Airport,40.5196990966797,22.9708995819092,
ZTH,Dionysios Solomos Airport,37.7509002685547,20.8843002319336,
BUD,Budapest Ferenc Liszt International Airport,47.4369010925,19.2555999756,http://www.bud.hu/english
DEB,Debrecen International Airport,47.488899230957,21.6152992248535,http://www.airportdebrecen.hu/
PEV,Pécs-Pogány Airport,45.990898,18.240996,http://www.airport-pecs.hu/
SOB,Sármellék International Airport,46.686391,17.159084,http://www.flybalaton.com/?null&lang=en
CRV,Crotone Airport,38.9972,17.0802,http://www.aeroporto.kr.it/cartaservizi_eng.asp
BRI,Bari Karol Wojtyła Airport,41.138901,16.760599,http://www.seap-puglia.it/default.asp?idlingua=2&idcontenuto=25
FOG,"Foggia ""Gino Lisa"" Airport",41.432899,15.535,
PSR,Pescara International Airport,42.431702,14.1811,http://www.abruzzo-airport.it/eng/index.php
BDS,Brindisi – Salento Airport,40.6576,17.947001,http://www.seap-puglia.it/default.asp?idlingua=2&idcontenuto=29
SUF,Lamezia Terme Airport,38.905399,16.2423,
CTA,Catania-Fontanarossa Airport,37.466801,15.0664,http://www.aeroporto.catania.it/
LMP,Lampedusa Airport,35.497898,12.6181,
PNL,Pantelleria Airport,36.816502,11.9689,
PMO,Falcone–Borsellino Airport,38.175999,13.091,http://www.gesap.it/index.php
REG,Reggio Calabria Airport,38.071201,15.6516,
TPS,Vincenzo Florio Airport Trapani-Birgi,37.9114,12.488,
AHO,Alghero-Fertilia Airport,40.632099,8.29077,http://www.aeroportodialghero.it/home_en.asp
CAG,Cagliari Elmas Airport,39.251499,9.05428,http://www.cagliariairport.it/en/
OLB,Olbia Costa Smeralda Airport,40.898701,9.51763,
TTB,Tortolì Airport,39.9188,9.68298,
MXP,Malpensa International Airport,45.6306,8.72811,http://www.sea-aeroportimilano.it/en/malpensa/index.phtml
BGY,Il Caravaggio International Airport,45.673901,9.70417,http://www.sacbo.it/
TRN,Turin Airport,45.200802,7.64963,http://www.aeroportoditorino.it/
ALL,Villanova D'Albenga International Airport,44.050598,8.12743,http://www.rivierairport.it/
GOA,Genoa Cristoforo Colombo Airport,44.4133,8.8375,http://www.aeroportodigenova.com/en/home/index.php
LIN,Milano Linate Airport,45.445099,9.27674,http://www.sea-aeroportimilano.it/en/
PMF,Parma Airport,44.824501,10.2964,
AOT,Aosta Airport,45.738499,7.36872,http://www.avda-aosta.it/
CUF,Cuneo International Airport,44.547001,7.62322,http://www.aeroporto.cuneo.it/
BZO,Bolzano Airport,46.460201,11.3264,http://www.abd-airport.it/en/home.htm
BLQ,Bologna Guglielmo Marconi Airport,44.5354,11.2887,http://www.bologna-airport.it/?LN=UK
TSF,Treviso-Sant'Angelo Airport,45.648399,12.1944,http://www.trevisoairport.it/tsf/index.jsp?_requestid=677517&language=en
FRL,Forlì Airport,44.194801,12.0701,
VBS,Brescia Airport,45.428902,10.3306,http://www.aeroportobrescia.it/en/business_t6/
TRS,Trieste–Friuli Venezia Giulia Airport,45.827499,13.4722,http://www.aeroporto.fvg.it/
RMI,Federico Fellini International Airport,44.020302,12.6117,http://www.riminiairport.com/english/
VRN,Verona Villafranca Airport,45.395699,10.8885,http://www.aeroportoverona.it/
AOI,Ancona Falconara Airport,43.616299,13.3623,http://www.aeroportomarche.com/index.php?lang=english
VCE,Venice Marco Polo Airport,45.505299,12.3519,http://www.veniceairport.com/core/index.jsp?_requestid=37300&language=en
CIA,Ciampino–G. B. Pastine International Airport,41.7994,12.5949,
